{
"type": "FeatureCollection",
"crs": { "type": "name", "properties": { "name": "urn:ogc:def:crs:EPSG::54004" } },
                                                                                
"features": [
{ "type": "Feature", "properties": { "DENOMINA_2": "AGAPITO MARAZUELA", "PROVINCIA": "SEGOVIA", "MUNICIPIO": "REAL SITIO DE SAN ILDEFONSO", "COORD__LON": -4.011380, "COORD__LAT": 40.903390, "CODIGO_COL": 40002881 }, "geometry": { "type": "Point", "coordinates": [ -4.01138, 40.90339 ] } },
{ "type": "Feature", "properties": { "DENOMINA_2": "ALEJANDRO CASONA", "PROVINCIA": "ZAMORA", "MUNICIPIO": "ZAMORA", "COORD__LON": -5.746150, "COORD__LAT": 41.493410, "CODIGO_COL": 49006482 }, "geometry": { "type": "Point", "coordinates": [ -5.74615, 41.49341 ] } },
{ "type": "Feature", "properties": { "DENOMINA_2": "ALEJANDRO RODRIGUEZ DE VALCARCEL", "PROVINCIA": "BURGOS", "MUNICIPIO": "COVARRUBIAS", "COORD__LON": -3.518240, "COORD__LAT": 42.060290, "CODIGO_COL": 9002388 }, "geometry": { "type": "Point", "coordinates": [ -3.51824, 42.06029 ] } },
{ "type": "Feature", "properties": { "DENOMINA_2": "ALEJANDRO RODRIGUEZ DE VALCARCEL", "PROVINCIA": "BURGOS", "MUNICIPIO": "BURGOS", "COORD__LON": -3.669030, "COORD__LAT": 42.354420, "CODIGO_COL": 9000975 }, "geometry": { "type": "Point", "coordinates": [ -3.66903, 42.35442 ] } },
{ "type": "Feature", "properties": { "DENOMINA_2": "ALFONSO X EL SABIO", "PROVINCIA": "SALAMANCA", "MUNICIPIO": "SALAMANCA", "COORD__LON": -5.669550, "COORD__LAT": 40.952720, "CODIGO_COL": 37005216 }, "geometry": { "type": "Point", "coordinates": [ -5.66955, 40.95272 ] } },
{ "type": "Feature", "properties": { "DENOMINA_2": "ALMANZOR", "PROVINCIA": "AVILA", "MUNICIPIO": "CANDELEDA", "COORD__LON": -5.238890, "COORD__LAT": 40.155460, "CODIGO_COL": 5001316 }, "geometry": { "type": "Point", "coordinates": [ -5.23889, 40.15546 ] } },
{ "type": "Feature", "properties": { "DENOMINA_2": "ALONSO BERRUGUETE", "PROVINCIA": "VALLADOLID", "MUNICIPIO": "VALLADOLID", "COORD__LON": -4.748830, "COORD__LAT": 41.625520, "CODIGO_COL": 47006089 }, "geometry": { "type": "Point", "coordinates": [ -4.74883, 41.62552 ] } },
{ "type": "Feature", "properties": { "DENOMINA_2": "ALONSO BERRUGUETE", "PROVINCIA": "PALENCIA", "MUNICIPIO": "PAREDES DE NAVA", "COORD__LON": -4.692340, "COORD__LAT": 42.149340, "CODIGO_COL": 34002010 }, "geometry": { "type": "Point", "coordinates": [ -4.69234, 42.14934 ] } },
{ "type": "Feature", "properties": { "DENOMINA_2": "ALONSO BERRUGUETE", "PROVINCIA": "PALENCIA", "MUNICIPIO": "LANTADILLA", "COORD__LON": -4.272070, "COORD__LAT": 42.795940, "CODIGO_COL": 34001169 }, "geometry": { "type": "Point", "coordinates": [ -4.27207, 42.79594 ] } },
{ "type": "Feature", "properties": { "DENOMINA_2": "ALTAMIRA", "PROVINCIA": "BURGOS", "MUNICIPIO": "MIRANDA DE EBRO", "COORD__LON": -2.943610, "COORD__LAT": 42.685540, "CODIGO_COL": 9008342 }, "geometry": { "type": "Point", "coordinates": [ -2.94361, 42.68554 ] } },
{ "type": "Feature", "properties": { "DENOMINA_2": "ALVAR FANEZ", "PROVINCIA": "VALLADOLID", "MUNICIPIO": "ISCAR", "COORD__LON": -4.531380, "COORD__LAT": 41.359740, "CODIGO_COL": 47001122 }, "geometry": { "type": "Point", "coordinates": [ -4.53138, 41.35974 ] } },
{ "type": "Feature", "properties": { "DENOMINA_2": "ALVAREZ MORATO", "PROVINCIA": "SALAMANCA", "MUNICIPIO": "SANTOS (LOS)", "COORD__LON": -5.802670, "COORD__LAT": 40.542080, "CODIGO_COL": 37006452 }, "geometry": { "type": "Point", "coordinates": [ -5.80267, 40.54208 ] } },
{ "type": "Feature", "properties": { "DENOMINA_2": "ANA DE AUSTRIA", "PROVINCIA": "VALLADOLID", "MUNICIPIO": "CIGALES", "COORD__LON": -4.696030, "COORD__LAT": 41.757500, "CODIGO_COL": 47011449 }, "geometry": { "type": "Point", "coordinates": [ -4.69603, 41.7575 ] } },
{ "type": "Feature", "properties": { "DENOMINA_2": "ANACLETO OREJON", "PROVINCIA": "PALENCIA", "MUNICIPIO": "ASTUDILLO", "COORD__LON": -4.296210, "COORD__LAT": 42.190120, "CODIGO_COL": 34000189 }, "geometry": { "type": "Point", "coordinates": [ -4.29621, 42.19012 ] } },
{ "type": "Feature", "properties": { "DENOMINA_2": "ANDUVA", "PROVINCIA": "BURGOS", "MUNICIPIO": "MIRANDA DE EBRO", "COORD__LON": -2.942260, "COORD__LAT": 42.681790, "CODIGO_COL": 9008226 }, "geometry": { "type": "Point", "coordinates": [ -2.94226, 42.68179 ] } },
{ "type": "Feature", "properties": { "DENOMINA_2": "ANEJAS", "PROVINCIA": "LEON", "MUNICIPIO": "LEON", "COORD__LON": -5.575940, "COORD__LAT": 42.605650, "CODIGO_COL": 24016331 }, "geometry": { "type": "Point", "coordinates": [ -5.57594, 42.60565 ] } },
{ "type": "Feature", "properties": { "DENOMINA_2": "ANGEL ABIA", "PROVINCIA": "PALENCIA", "MUNICIPIO": "VENTA DE BANOS", "COORD__LON": -4.487990, "COORD__LAT": 41.916980, "CODIGO_COL": 34000256 }, "geometry": { "type": "Point", "coordinates": [ -4.48799, 41.91698 ] } },
{ "type": "Feature", "properties": { "DENOMINA_2": "ANGEL GONZALEZ ALVAREZ", "PROVINCIA": "LEON", "MUNICIPIO": "ASTORGA", "COORD__LON": -6.056670, "COORD__LAT": 42.460140, "CODIGO_COL": 24000451 }, "geometry": { "type": "Point", "coordinates": [ -6.05667, 42.46014 ] } },
{ "type": "Feature", "properties": { "DENOMINA_2": "ANTONIO ALLUE MORER", "PROVINCIA": "VALLADOLID", "MUNICIPIO": "VALLADOLID", "COORD__LON": -4.724660, "COORD__LAT": 41.631310, "CODIGO_COL": 47003519 }, "geometry": { "type": "Point", "coordinates": [ -4.72466, 41.63131 ] } },
{ "type": "Feature", "properties": { "DENOMINA_2": "ANTONIO DE VALBUENA", "PROVINCIA": "LEON", "MUNICIPIO": "LEON", "COORD__LON": -5.592240, "COORD__LAT": 42.603930, "CODIGO_COL": 24016274 }, "geometry": { "type": "Point", "coordinates": [ -5.59224, 42.60393 ] } },
{ "type": "Feature", "properties": { "DENOMINA_2": "ANTONIO GARCIA QUINTANA", "PROVINCIA": "VALLADOLID", "MUNICIPIO": "VALLADOLID", "COORD__LON": -4.724950, "COORD__LAT": 41.649050, "CODIGO_COL": 47006624 }, "geometry": { "type": "Point", "coordinates": [ -4.72495, 41.64905 ] } },
{ "type": "Feature", "properties": { "DENOMINA_2": "ANTONIO GONZALEZ DE LAMA", "PROVINCIA": "LEON", "MUNICIPIO": "LEON", "COORD__LON": -5.563900, "COORD__LAT": 42.596320, "CODIGO_COL": 24005896 }, "geometry": { "type": "Point", "coordinates": [ -5.5639, 42.59632 ] } },
{ "type": "Feature", "properties": { "DENOMINA_2": "ANTONIO JUSTEL", "PROVINCIA": "LEON", "MUNICIPIO": "CASTROCONTRIGO", "COORD__LON": -6.269520, "COORD__LAT": 42.245340, "CODIGO_COL": 24002901 }, "geometry": { "type": "Point", "coordinates": [ -6.26952, 42.24534 ] } },
{ "type": "Feature", "properties": { "DENOMINA_2": "ANTONIO MACHADO", "PROVINCIA": "VALLADOLID", "MUNICIPIO": "VALLADOLID", "COORD__LON": -4.704630, "COORD__LAT": 41.653110, "CODIGO_COL": 47005887 }, "geometry": { "type": "Point", "coordinates": [ -4.70463, 41.65311 ] } },
{ "type": "Feature", "properties": { "DENOMINA_2": "ANTONIO MACHADO", "PROVINCIA": "BURGOS", "MUNICIPIO": "BURGOS", "COORD__LON": -3.690390, "COORD__LAT": 42.346530, "CODIGO_COL": 9007805 }, "geometry": { "type": "Point", "coordinates": [ -3.69039, 42.34653 ] } },
{ "type": "Feature", "properties": { "DENOMINA_2": "ARCIPRESTE DE HITA", "PROVINCIA": "SEGOVIA", "MUNICIPIO": "ESPINAR (EL)", "COORD__LON": -4.241760, "COORD__LAT": 40.720260, "CODIGO_COL": 40001141 }, "geometry": { "type": "Point", "coordinates": [ -4.24176, 40.72026 ] } },
{ "type": "Feature", "properties": { "DENOMINA_2": "ARIAS GONZALO", "PROVINCIA": "ZAMORA", "MUNICIPIO": "ZAMORA", "COORD__LON": -5.742000, "COORD__LAT": 41.507870, "CODIGO_COL": 49005489 }, "geometry": { "type": "Point", "coordinates": [ -5.742, 41.50787 ] } },
{ "type": "Feature", "properties": { "DENOMINA_2": "ARRABAL DEL PUENTE", "PROVINCIA": "SALAMANCA", "MUNICIPIO": "CIUDAD RODRIGO", "COORD__LON": -6.537070, "COORD__LAT": 40.591450, "CODIGO_COL": 37002082 }, "geometry": { "type": "Point", "coordinates": [ -6.53707, 40.59145 ] } },
{ "type": "Feature", "properties": { "DENOMINA_2": "ARROYO", "PROVINCIA": "VALLADOLID", "MUNICIPIO": "SAN MIGUEL DEL ARROYO", "COORD__LON": -4.460730, "COORD__LAT": 41.444020, "CODIGO_COL": 47002369 }, "geometry": { "type": "Point", "coordinates": [ -4.46073, 41.44402 ] } },
{ "type": "Feature", "properties": { "DENOMINA_2": "ARTURO DUPERIER", "PROVINCIA": "AVILA", "MUNICIPIO": "AVILA", "COORD__LON": -4.687050, "COORD__LAT": 40.648100, "CODIGO_COL": 5000671 }, "geometry": { "type": "Point", "coordinates": [ -4.68705, 40.6481 ] } },
{ "type": "Feature", "properties": { "DENOMINA_2": "ATALAYA", "PROVINCIA": "SEGOVIA", "MUNICIPIO": "PALAZUELOS DE ERESMA", "COORD__LON": -4.063100, "COORD__LAT": 40.933230, "CODIGO_COL": 40002431 }, "geometry": { "type": "Point", "coordinates": [ -4.0631, 40.93323 ] } },
{ "type": "Feature", "properties": { "DENOMINA_2": "AVE MARIA", "PROVINCIA": "PALENCIA", "MUNICIPIO": "PALENCIA", "COORD__LON": -4.533790, "COORD__LAT": 42.017740, "CODIGO_COL": 34001728 }, "geometry": { "type": "Point", "coordinates": [ -4.53379, 42.01774 ] } },
{ "type": "Feature", "properties": { "DENOMINA_2": "BEATRIZ GALINDO", "PROVINCIA": "SALAMANCA", "MUNICIPIO": "SALAMANCA", "COORD__LON": -5.667450, "COORD__LAT": 40.974350, "CODIGO_COL": 37005231 }, "geometry": { "type": "Point", "coordinates": [ -5.66745, 40.97435 ] } },
{ "type": "Feature", "properties": { "DENOMINA_2": "BENITO LEON", "PROVINCIA": "LEON", "MUNICIPIO": "SANTA MARIA DEL PARAMO", "COORD__LON": -5.752390, "COORD__LAT": 42.355330, "CODIGO_COL": 24010958 }, "geometry": { "type": "Point", "coordinates": [ -5.75239, 42.35533 ] } },
{ "type": "Feature", "properties": { "DENOMINA_2": "BERNARDINO PEREZ", "PROVINCIA": "LEON", "MUNICIPIO": "VALENCIA DE DON JUAN", "COORD__LON": -5.514660, "COORD__LAT": 42.288170, "CODIGO_COL": 24013224 }, "geometry": { "type": "Point", "coordinates": [ -5.51466, 42.28817 ] } },
{ "type": "Feature", "properties": { "DENOMINA_2": "BLANCO DE CELA", "PROVINCIA": "LEON", "MUNICIPIO": "ASTORGA", "COORD__LON": -6.059410, "COORD__LAT": 42.456110, "CODIGO_COL": 24000503 }, "geometry": { "type": "Point", "coordinates": [ -6.05941, 42.45611 ] } },
{ "type": "Feature", "properties": { "DENOMINA_2": "BLAS SIERRA", "PROVINCIA": "PALENCIA", "MUNICIPIO": "PALENCIA", "COORD__LON": -4.538530, "COORD__LAT": 42.013140, "CODIGO_COL": 34001391 }, "geometry": { "type": "Point", "coordinates": [ -4.53853, 42.01314 ] } },
{ "type": "Feature", "properties": { "DENOMINA_2": "BUENOS AIRES", "PROVINCIA": "ZAMORA", "MUNICIPIO": "BENAVENTE", "COORD__LON": -5.676840, "COORD__LAT": 42.010340, "CODIGO_COL": 49006512 }, "geometry": { "type": "Point", "coordinates": [ -5.67684, 42.01034 ] } },
{ "type": "Feature", "properties": { "DENOMINA_2": "BUENOS AIRES \/ GABRIEL MARTIN", "PROVINCIA": "SALAMANCA", "MUNICIPIO": "SALAMANCA", "COORD__LON": -5.704560, "COORD__LAT": 40.954730, "CODIGO_COL": 37008783 }, "geometry": { "type": "Point", "coordinates": [ -5.70456, 40.95473 ] } },
{ "type": "Feature", "properties": { "DENOMINA_2": "CAJA DE AHORROS", "PROVINCIA": "SALAMANCA", "MUNICIPIO": "SALAMANCA", "COORD__LON": -5.650180, "COORD__LAT": 40.964610, "CODIGO_COL": 37008461 }, "geometry": { "type": "Point", "coordinates": [ -5.65018, 40.96461 ] } },
{ "type": "Feature", "properties": { "DENOMINA_2": "CAMINO DEL NORTE", "PROVINCIA": "LEON", "MUNICIPIO": "LEON", "COORD__LON": -5.589920, "COORD__LAT": 42.610260, "CODIGO_COL": 24021981 }, "geometry": { "type": "Point", "coordinates": [ -5.58992, 42.61026 ] } },
{ "type": "Feature", "properties": { "DENOMINA_2": "CAMPO CHARRO", "PROVINCIA": "SALAMANCA", "MUNICIPIO": "SALAMANCA", "COORD__LON": -5.675640, "COORD__LAT": 40.965030, "CODIGO_COL": 37008621 }, "geometry": { "type": "Point", "coordinates": [ -5.67564, 40.96503 ] } },
{ "type": "Feature", "properties": { "DENOMINA_2": "CAMPO DE LA CRUZ", "PROVINCIA": "LEON", "MUNICIPIO": "PONFERRADA", "COORD__LON": -6.586780, "COORD__LAT": 42.548840, "CODIGO_COL": 24008265 }, "geometry": { "type": "Point", "coordinates": [ -6.58678, 42.54884 ] } },
{ "type": "Feature", "properties": { "DENOMINA_2": "CAMPO DE LOS JUDIOS", "PROVINCIA": "LEON", "MUNICIPIO": "PONFERRADA", "COORD__LON": -6.588190, "COORD__LAT": 42.551760, "CODIGO_COL": 24017205 }, "geometry": { "type": "Point", "coordinates": [ -6.58819, 42.55176 ] } },
{ "type": "Feature", "properties": { "DENOMINA_2": "CANO DORADO", "PROVINCIA": "VALLADOLID", "MUNICIPIO": "ZARATAN", "COORD__LON": -4.781870, "COORD__LAT": 41.660160, "CODIGO_COL": 47011280 }, "geometry": { "type": "Point", "coordinates": [ -4.78187, 41.66016 ] } },
{ "type": "Feature", "properties": { "DENOMINA_2": "CARDENAL CISNEROS", "PROVINCIA": "SEGOVIA", "MUNICIPIO": "BOCEGUILLAS", "COORD__LON": -3.638410, "COORD__LAT": 41.336570, "CODIGO_COL": 40000422 }, "geometry": { "type": "Point", "coordinates": [ -3.63841, 41.33657 ] } },
{ "type": "Feature", "properties": { "DENOMINA_2": "CARDENAL MENDOZA", "PROVINCIA": "VALLADOLID", "MUNICIPIO": "VALLADOLID", "COORD__LON": -4.723110, "COORD__LAT": 41.646760, "CODIGO_COL": 47003192 }, "geometry": { "type": "Point", "coordinates": [ -4.72311, 41.64676 ] } },
{ "type": "Feature", "properties": { "DENOMINA_2": "CARLOS CASADO DEL ALISAL", "PROVINCIA": "PALENCIA", "MUNICIPIO": "VILLADA", "COORD__LON": -4.699920, "COORD__LAT": 42.402720, "CODIGO_COL": 34002711 }, "geometry": { "type": "Point", "coordinates": [ -4.69992, 42.40272 ] } },
{ "type": "Feature", "properties": { "DENOMINA_2": "CARLOS DE LECEA", "PROVINCIA": "SEGOVIA", "MUNICIPIO": "SEGOVIA", "COORD__LON": -4.115320, "COORD__LAT": 40.933630, "CODIGO_COL": 40004488 }, "geometry": { "type": "Point", "coordinates": [ -4.11532, 40.93363 ] } },
{ "type": "Feature", "properties": { "DENOMINA_2": "CARLOS RUIZ", "PROVINCIA": "PALENCIA", "MUNICIPIO": "PERNIA (LA)", "COORD__LON": -4.495960, "COORD__LAT": 42.966540, "CODIGO_COL": 34002356 }, "geometry": { "type": "Point", "coordinates": [ -4.49596, 42.96654 ] } },
{ "type": "Feature", "properties": { "DENOMINA_2": "CARMEN MARTIN GAITE", "PROVINCIA": "SALAMANCA", "MUNICIPIO": "SANTA MARTA DE TORMES", "COORD__LON": -5.626540, "COORD__LAT": 40.946410, "CODIGO_COL": 37009295 }, "geometry": { "type": "Point", "coordinates": [ -5.62654, 40.94641 ] } },
{ "type": "Feature", "properties": { "DENOMINA_2": "CASTILLA", "PROVINCIA": "BURGOS", "MUNICIPIO": "ARANDA DE DUERO", "COORD__LON": -3.684830, "COORD__LAT": 41.673160, "CODIGO_COL": 9000148 }, "geometry": { "type": "Point", "coordinates": [ -3.68483, 41.67316 ] } },
{ "type": "Feature", "properties": { "DENOMINA_2": "CASTILLA Y LEON", "PROVINCIA": "PALENCIA", "MUNICIPIO": "AGUILAR DE CAMPOO", "COORD__LON": -4.257330, "COORD__LAT": 42.786790, "CODIGO_COL": 34000013 }, "geometry": { "type": "Point", "coordinates": [ -4.25733, 42.78679 ] } },
{ "type": "Feature", "properties": { "DENOMINA_2": "CERVANTES", "PROVINCIA": "LEON", "MUNICIPIO": "LEON", "COORD__LON": -5.570640, "COORD__LAT": 42.615440, "CODIGO_COL": 24005719 }, "geometry": { "type": "Point", "coordinates": [ -5.57064, 42.61544 ] } },
{ "type": "Feature", "properties": { "DENOMINA_2": "CERVANTES", "PROVINCIA": "AVILA", "MUNICIPIO": "AVILA", "COORD__LON": -4.695440, "COORD__LAT": 40.652350, "CODIGO_COL": 5000749 }, "geometry": { "type": "Point", "coordinates": [ -4.69544, 40.65235 ] } },
{ "type": "Feature", "properties": { "DENOMINA_2": "CERVANTES", "PROVINCIA": "BURGOS", "MUNICIPIO": "MIRANDA DE EBRO", "COORD__LON": -2.948340, "COORD__LAT": 42.684070, "CODIGO_COL": 9003861 }, "geometry": { "type": "Point", "coordinates": [ -2.94834, 42.68407 ] } },
{ "type": "Feature", "properties": { "DENOMINA_2": "CESAR BEDOYA", "PROVINCIA": "VALLADOLID", "MUNICIPIO": "SECA (LA)", "COORD__LON": -4.904620, "COORD__LAT": 41.410190, "CODIGO_COL": 47002576 }, "geometry": { "type": "Point", "coordinates": [ -4.90462, 41.41019 ] } },
{ "type": "Feature", "properties": { "DENOMINA_2": "CIUDAD DE BUENOS AIRES", "PROVINCIA": "PALENCIA", "MUNICIPIO": "PALENCIA", "COORD__LON": -4.522480, "COORD__LAT": 42.009020, "CODIGO_COL": 34003026 }, "geometry": { "type": "Point", "coordinates": [ -4.52248, 42.00902 ] } },
{ "type": "Feature", "properties": { "DENOMINA_2": "CIUDAD DE L@S NIN@S", "PROVINCIA": "SALAMANCA", "MUNICIPIO": "VILLAMAYOR", "COORD__LON": -5.690370, "COORD__LAT": 40.998090, "CODIGO_COL": 37013535 }, "geometry": { "type": "Point", "coordinates": [ -5.69037, 40.99809 ] } },
{ "type": "Feature", "properties": { "DENOMINA_2": "CLAUDIA CIANCAS", "PROVINCIA": "BURGOS", "MUNICIPIO": "SASAMON", "COORD__LON": -4.046360, "COORD__LAT": 42.417850, "CODIGO_COL": 9005833 }, "geometry": { "type": "Point", "coordinates": [ -4.04636, 42.41785 ] } },
{ "type": "Feature", "properties": { "DENOMINA_2": "CLAUDIO SANCHEZ ALBORNOZ", "PROVINCIA": "BURGOS", "MUNICIPIO": "BURGOS", "COORD__LON": -3.668050, "COORD__LAT": 42.345310, "CODIGO_COL": 9008202 }, "geometry": { "type": "Point", "coordinates": [ -3.66805, 42.34531 ] } },
{ "type": "Feature", "properties": { "DENOMINA_2": "CLAUDIO SANCHEZ ALBORNOZ", "PROVINCIA": "AVILA", "MUNICIPIO": "AVILA", "COORD__LON": -4.688260, "COORD__LAT": 40.656370, "CODIGO_COL": 5000488 }, "geometry": { "type": "Point", "coordinates": [ -4.68826, 40.65637 ] } },
{ "type": "Feature", "properties": { "DENOMINA_2": "CLEMENTE FERNANDEZ DE LA DEVESA", "PROVINCIA": "VALLADOLID", "MUNICIPIO": "MEDINA DEL CAMPO", "COORD__LON": -4.919870, "COORD__LAT": 41.306960, "CODIGO_COL": 47006600 }, "geometry": { "type": "Point", "coordinates": [ -4.91987, 41.30696 ] } },
{ "type": "Feature", "properties": { "DENOMINA_2": "COLEGIO PUBLICO DE ALMARAZ", "PROVINCIA": "ZAMORA", "MUNICIPIO": "ALMARAZ DE DUERO", "COORD__LON": -5.915880, "COORD__LAT": 41.472400, "CODIGO_COL": 49000133 }, "geometry": { "type": "Point", "coordinates": [ -5.91588, 41.4724 ] } },
{ "type": "Feature", "properties": { "DENOMINA_2": "COLEGIO PUBLICO DE FERMOSELLE", "PROVINCIA": "ZAMORA", "MUNICIPIO": "FERMOSELLE", "COORD__LON": -6.394860, "COORD__LAT": 41.315520, "CODIGO_COL": 49006238 }, "geometry": { "type": "Point", "coordinates": [ -6.39486, 41.31552 ] } },
{ "type": "Feature", "properties": { "DENOMINA_2": "COLEGIO PUBLICO DE MORALES DEL VINO", "PROVINCIA": "ZAMORA", "MUNICIPIO": "MORALES DEL VINO", "COORD__LON": -5.731910, "COORD__LAT": 41.444070, "CODIGO_COL": 49010722 }, "geometry": { "type": "Point", "coordinates": [ -5.73191, 41.44407 ] } },
{ "type": "Feature", "properties": { "DENOMINA_2": "COLEGIO PUBLICO DE SANTIBANEZ DE TERA", "PROVINCIA": "ZAMORA", "MUNICIPIO": "SANTIBANEZ DE TERA", "COORD__LON": -5.922780, "COORD__LAT": 41.982060, "CODIGO_COL": 49004175 }, "geometry": { "type": "Point", "coordinates": [ -5.92278, 41.98206 ] } },
{ "type": "Feature", "properties": { "DENOMINA_2": "COLEGIO PUBLICO DE VILLAGONZALO-PEDERNALES", "PROVINCIA": "BURGOS", "MUNICIPIO": "VILLAGONZALO PEDERNALES", "COORD__LON": -3.734620, "COORD__LAT": 42.299660, "CODIGO_COL": 9012278 }, "geometry": { "type": "Point", "coordinates": [ -3.73462, 42.29966 ] } },
{ "type": "Feature", "properties": { "DENOMINA_2": "COLEGIO PUBLICO DE VILLALOBON", "PROVINCIA": "PALENCIA", "MUNICIPIO": "VILLALOBON", "COORD__LON": -4.499650, "COORD__LAT": 42.028660, "CODIGO_COL": 34007101 }, "geometry": { "type": "Point", "coordinates": [ -4.49965, 42.02866 ] } },
{ "type": "Feature", "properties": { "DENOMINA_2": "COLEGIO PUBLICO DE VILORIA DEL HENAR", "PROVINCIA": "VALLADOLID", "MUNICIPIO": "VILORIA", "COORD__LON": -4.359980, "COORD__LAT": 41.407290, "CODIGO_COL": 47005085 }, "geometry": { "type": "Point", "coordinates": [ -4.35998, 41.40729 ] } },
{ "type": "Feature", "properties": { "DENOMINA_2": "COLEGIO PUBLICOS DE VILLARES DE LA REINA", "PROVINCIA": "SALAMANCA", "MUNICIPIO": "VILLARES DE LA REINA", "COORD__LON": -5.671520, "COORD__LAT": 41.020090, "CODIGO_COL": 37013641 }, "geometry": { "type": "Point", "coordinates": [ -5.67152, 41.02009 ] } },
{ "type": "Feature", "properties": { "DENOMINA_2": "COMPOSTILLA", "PROVINCIA": "LEON", "MUNICIPIO": "PONFERRADA", "COORD__LON": -6.599380, "COORD__LAT": 42.562650, "CODIGO_COL": 24017278 }, "geometry": { "type": "Point", "coordinates": [ -6.59938, 42.56265 ] } },
{ "type": "Feature", "properties": { "DENOMINA_2": "COMUNEROS DE CASTILLA", "PROVINCIA": "AVILA", "MUNICIPIO": "AVILA", "COORD__LON": -4.687180, "COORD__LAT": 40.661560, "CODIGO_COL": 5005565 }, "geometry": { "type": "Point", "coordinates": [ -4.68718, 40.66156 ] } },
{ "type": "Feature", "properties": { "DENOMINA_2": "CONDADO DE TREVINO", "PROVINCIA": "BURGOS", "MUNICIPIO": "CONDADO DE TREVINO", "COORD__LON": -2.749030, "COORD__LAT": 42.734310, "CODIGO_COL": 9002339 }, "geometry": { "type": "Point", "coordinates": [ -2.74903, 42.73431 ] } },
{ "type": "Feature", "properties": { "DENOMINA_2": "CONDE DE VALLELLANO", "PROVINCIA": "PALENCIA", "MUNICIPIO": "AMPUDIA", "COORD__LON": -4.778970, "COORD__LAT": 41.911990, "CODIGO_COL": 34000141 }, "geometry": { "type": "Point", "coordinates": [ -4.77897, 41.91199 ] } },
{ "type": "Feature", "properties": { "DENOMINA_2": "CRA ABADENGO", "PROVINCIA": "SALAMANCA", "MUNICIPIO": "HINOJOSA DE DUERO", "COORD__LON": -6.793870, "COORD__LAT": 40.986130, "CODIGO_COL": 37009866 }, "geometry": { "type": "Point", "coordinates": [ -6.79387, 40.98613 ] } },
{ "type": "Feature", "properties": { "DENOMINA_2": "CRA AGADONES", "PROVINCIA": "SALAMANCA", "MUNICIPIO": "MARTIAGO", "COORD__LON": -6.422640, "COORD__LAT": 40.453410, "CODIGO_COL": 37009386 }, "geometry": { "type": "Point", "coordinates": [ -6.42264, 40.45341 ] } },
{ "type": "Feature", "properties": { "DENOMINA_2": "CRA ALBORADA", "PROVINCIA": "LEON", "MUNICIPIO": "PONFERRADA", "COORD__LON": -6.585260, "COORD__LAT": 42.540750, "CODIGO_COL": 24018131 }, "geometry": { "type": "Point", "coordinates": [ -6.58526, 42.54075 ] } },
{ "type": "Feature", "properties": { "DENOMINA_2": "CRA ALFOZ DE TORO", "PROVINCIA": "ZAMORA", "MUNICIPIO": "MORALES DE TORO", "COORD__LON": -5.305820, "COORD__LAT": 41.539930, "CODIGO_COL": 49007191 }, "geometry": { "type": "Point", "coordinates": [ -5.30582, 41.53993 ] } },
{ "type": "Feature", "properties": { "DENOMINA_2": "CRA ALHANDIGA", "PROVINCIA": "SALAMANCA", "MUNICIPIO": "MAYA (LA)", "COORD__LON": -5.611780, "COORD__LAT": 40.687800, "CODIGO_COL": 37009544 }, "geometry": { "type": "Point", "coordinates": [ -5.61178, 40.6878 ] } },
{ "type": "Feature", "properties": { "DENOMINA_2": "CRA ALTO AGUEDA", "PROVINCIA": "SALAMANCA", "MUNICIPIO": "NAVASFRIAS", "COORD__LON": -6.821310, "COORD__LAT": 40.298170, "CODIGO_COL": 37009568 }, "geometry": { "type": "Point", "coordinates": [ -6.82131, 40.29817 ] } },
{ "type": "Feature", "properties": { "DENOMINA_2": "CRA ALTO ALBERCHE", "PROVINCIA": "AVILA", "MUNICIPIO": "NAVALOSA", "COORD__LON": -4.933100, "COORD__LAT": 40.400740, "CODIGO_COL": 5009583 }, "geometry": { "type": "Point", "coordinates": [ -4.9331, 40.40074 ] } },
{ "type": "Feature", "properties": { "DENOMINA_2": "CRA ALTO GREDOS", "PROVINCIA": "AVILA", "MUNICIPIO": "HOYOS DEL ESPINO", "COORD__LON": -5.176960, "COORD__LAT": 40.352500, "CODIGO_COL": 5002345 }, "geometry": { "type": "Point", "coordinates": [ -5.17696, 40.3525 ] } },
{ "type": "Feature", "properties": { "DENOMINA_2": "CRA ALTO TIETAR", "PROVINCIA": "AVILA", "MUNICIPIO": "SANTA MARIA DEL TIETAR", "COORD__LON": -4.551240, "COORD__LAT": 40.306580, "CODIGO_COL": 5006132 }, "geometry": { "type": "Point", "coordinates": [ -4.55124, 40.30658 ] } },
{ "type": "Feature", "properties": { "DENOMINA_2": "CRA ANTONIO DE NEBRIJA", "PROVINCIA": "BURGOS", "MUNICIPIO": "TORRESANDINO", "COORD__LON": -3.909540, "COORD__LAT": 41.827360, "CODIGO_COL": 9008721 }, "geometry": { "type": "Point", "coordinates": [ -3.90954, 41.82736 ] } },
{ "type": "Feature", "properties": { "DENOMINA_2": "CRA ARMUNA", "PROVINCIA": "SALAMANCA", "MUNICIPIO": "PEDROSILLO EL RALO", "COORD__LON": -5.538190, "COORD__LAT": 41.041580, "CODIGO_COL": 37009911 }, "geometry": { "type": "Point", "coordinates": [ -5.53819, 41.04158 ] } },
{ "type": "Feature", "properties": { "DENOMINA_2": "CRA ARTURO DUPERIER", "PROVINCIA": "AVILA", "MUNICIPIO": "LANZAHITA", "COORD__LON": -4.936660, "COORD__LAT": 40.204900, "CODIGO_COL": 5006120 }, "geometry": { "type": "Point", "coordinates": [ -4.93666, 40.2049 ] } },
{ "type": "Feature", "properties": { "DENOMINA_2": "CRA BABIA", "PROVINCIA": "LEON", "MUNICIPIO": "CABRILLANES", "COORD__LON": -6.097050, "COORD__LAT": 42.954700, "CODIGO_COL": 24018052 }, "geometry": { "type": "Point", "coordinates": [ -6.09705, 42.9547 ] } },
{ "type": "Feature", "properties": { "DENOMINA_2": "CRA BAJO DUERO", "PROVINCIA": "ZAMORA", "MUNICIPIO": "CUBO DE TIERRA DEL VINO (EL)", "COORD__LON": -5.713750, "COORD__LAT": 41.254340, "CODIGO_COL": 49007358 }, "geometry": { "type": "Point", "coordinates": [ -5.71375, 41.25434 ] } },
{ "type": "Feature", "properties": { "DENOMINA_2": "CRA BAJO TORMES", "PROVINCIA": "SALAMANCA", "MUNICIPIO": "VILLASECO DE LOS REYES", "COORD__LON": -6.184580, "COORD__LAT": 41.162630, "CODIGO_COL": 37007602 }, "geometry": { "type": "Point", "coordinates": [ -6.18458, 41.16263 ] } },
{ "type": "Feature", "properties": { "DENOMINA_2": "CRA CABRERA", "PROVINCIA": "LEON", "MUNICIPIO": "ENCINEDO", "COORD__LON": -6.560280, "COORD__LAT": 42.278140, "CODIGO_COL": 24018404 }, "geometry": { "type": "Point", "coordinates": [ -6.56028, 42.27814 ] } },
{ "type": "Feature", "properties": { "DENOMINA_2": "CRA CAMILO JOSE CELA", "PROVINCIA": "AVILA", "MUNICIPIO": "ARENAL (EL)", "COORD__LON": -5.087940, "COORD__LAT": 40.265010, "CODIGO_COL": 5005875 }, "geometry": { "type": "Point", "coordinates": [ -5.08794, 40.26501 ] } },
{ "type": "Feature", "properties": { "DENOMINA_2": "CRA CAMPO DE ARGANAN", "PROVINCIA": "SALAMANCA", "MUNICIPIO": "FUENTES DE ONORO", "COORD__LON": -6.821420, "COORD__LAT": 40.595070, "CODIGO_COL": 37009842 }, "geometry": { "type": "Point", "coordinates": [ -6.82142, 40.59507 ] } },
{ "type": "Feature", "properties": { "DENOMINA_2": "CRA CAMPO DE PENARANDA", "PROVINCIA": "SALAMANCA", "MUNICIPIO": "CAMPO DE PENARANDA (EL)", "COORD__LON": -5.286010, "COORD__LAT": 40.954100, "CODIGO_COL": 37009453 }, "geometry": { "type": "Point", "coordinates": [ -5.28601, 40.9541 ] } },
{ "type": "Feature", "properties": { "DENOMINA_2": "CRA CAMPO DE SALAMANCA", "PROVINCIA": "SALAMANCA", "MUNICIPIO": "BARBADILLO", "COORD__LON": -5.882200, "COORD__LAT": 40.932990, "CODIGO_COL": 37009428 }, "geometry": { "type": "Point", "coordinates": [ -5.8822, 40.93299 ] } },
{ "type": "Feature", "properties": { "DENOMINA_2": "CRA CAMPOPETRE", "PROVINCIA": "SALAMANCA", "MUNICIPIO": "CANTALAPIEDRA", "COORD__LON": -5.186830, "COORD__LAT": 41.125380, "CODIGO_COL": 37009635 }, "geometry": { "type": "Point", "coordinates": [ -5.18683, 41.12538 ] } },
{ "type": "Feature", "properties": { "DENOMINA_2": "CRA CAMPOS CASTELLANOS", "PROVINCIA": "SEGOVIA", "MUNICIPIO": "CANTIMPALOS", "COORD__LON": -4.162730, "COORD__LAT": 41.071600, "CODIGO_COL": 40004968 }, "geometry": { "type": "Point", "coordinates": [ -4.16273, 41.0716 ] } },
{ "type": "Feature", "properties": { "DENOMINA_2": "CRA CAMPOS DE CASTILLA", "PROVINCIA": "SEGOVIA", "MUNICIPIO": "MARTIN MUNOZ DE LAS POSADAS", "COORD__LON": -4.595640, "COORD__LAT": 40.995320, "CODIGO_COL": 40004853 }, "geometry": { "type": "Point", "coordinates": [ -4.59564, 40.99532 ] } },
{ "type": "Feature", "properties": { "DENOMINA_2": "CRA CAMPOS DE CASTILLA", "PROVINCIA": "VALLADOLID", "MUNICIPIO": "BECILLA DE VALDERADUEY", "COORD__LON": -5.215950, "COORD__LAT": 42.098730, "CODIGO_COL": 47006961 }, "geometry": { "type": "Point", "coordinates": [ -5.21595, 42.09873 ] } },
{ "type": "Feature", "properties": { "DENOMINA_2": "CRA CAMPOS DE CASTILLA", "PROVINCIA": "PALENCIA", "MUNICIPIO": "BECERRIL DE CAMPOS", "COORD__LON": -4.647430, "COORD__LAT": 42.107520, "CODIGO_COL": 34003804 }, "geometry": { "type": "Point", "coordinates": [ -4.64743, 42.10752 ] } },
{ "type": "Feature", "properties": { "DENOMINA_2": "CRA CAMPOS DE GOMARA", "PROVINCIA": "SORIA", "MUNICIPIO": "GOMARA", "COORD__LON": -2.231130, "COORD__LAT": 41.624590, "CODIGO_COL": 42003803 }, "geometry": { "type": "Point", "coordinates": [ -2.23113, 41.62459 ] } },
{ "type": "Feature", "properties": { "DENOMINA_2": "CRA CAMPOS GOTICOS", "PROVINCIA": "VALLADOLID", "MUNICIPIO": "MEDINA DE RIOSECO", "COORD__LON": -5.046270, "COORD__LAT": 41.886330, "CODIGO_COL": 47007239 }, "geometry": { "type": "Point", "coordinates": [ -5.04627, 41.88633 ] } },
{ "type": "Feature", "properties": { "DENOMINA_2": "CRA CANADA REAL", "PROVINCIA": "SALAMANCA", "MUNICIPIO": "CANTARACILLO", "COORD__LON": -5.161970, "COORD__LAT": 40.904820, "CODIGO_COL": 37009477 }, "geometry": { "type": "Point", "coordinates": [ -5.16197, 40.90482 ] } },
{ "type": "Feature", "properties": { "DENOMINA_2": "CRA CARDENAL CISNEROS", "PROVINCIA": "BURGOS", "MUNICIPIO": "ROA", "COORD__LON": -3.931560, "COORD__LAT": 41.695800, "CODIGO_COL": 9008706 }, "geometry": { "type": "Point", "coordinates": [ -3.93156, 41.6958 ] } },
{ "type": "Feature", "properties": { "DENOMINA_2": "CRA CASTELLANOS DE MORISCOS", "PROVINCIA": "SALAMANCA", "MUNICIPIO": "CASTELLANOS DE MORISCOS", "COORD__LON": -5.589780, "COORD__LAT": 41.017260, "CODIGO_COL": 37013365 }, "geometry": { "type": "Point", "coordinates": [ -5.58978, 41.01726 ] } },
{ "type": "Feature", "properties": { "DENOMINA_2": "CRA DE ALIJA DEL INFANTADO", "PROVINCIA": "LEON", "MUNICIPIO": "ALIJA DEL INFANTADO", "COORD__LON": -5.832640, "COORD__LAT": 42.137440, "CODIGO_COL": 24018155 }, "geometry": { "type": "Point", "coordinates": [ -5.83264, 42.13744 ] } },
{ "type": "Feature", "properties": { "DENOMINA_2": "CRA DE ARMELLADA", "PROVINCIA": "LEON", "MUNICIPIO": "TURCIA", "COORD__LON": -5.864280, "COORD__LAT": 42.552450, "CODIGO_COL": 24018039 }, "geometry": { "type": "Point", "coordinates": [ -5.86428, 42.55245 ] } },
{ "type": "Feature", "properties": { "DENOMINA_2": "CRA DE AYLLON", "PROVINCIA": "SEGOVIA", "MUNICIPIO": "AYLLON", "COORD__LON": -3.379860, "COORD__LAT": 41.418590, "CODIGO_COL": 40004956 }, "geometry": { "type": "Point", "coordinates": [ -3.37986, 41.41859 ] } },
{ "type": "Feature", "properties": { "DENOMINA_2": "CRA DE BUSTILLO DEL PARAMO", "PROVINCIA": "LEON", "MUNICIPIO": "BUSTILLO DEL PARAMO", "COORD__LON": -5.799700, "COORD__LAT": 42.437690, "CODIGO_COL": 24018088 }, "geometry": { "type": "Point", "coordinates": [ -5.7997, 42.43769 ] } },
{ "type": "Feature", "properties": { "DENOMINA_2": "CRA DE CARUCEDO", "PROVINCIA": "LEON", "MUNICIPIO": "CARUCEDO", "COORD__LON": -6.780140, "COORD__LAT": 42.540230, "CODIGO_COL": 24018118 }, "geometry": { "type": "Point", "coordinates": [ -6.78014, 42.54023 ] } },
{ "type": "Feature", "properties": { "DENOMINA_2": "CRA DE CUBILLOS DEL SIL", "PROVINCIA": "LEON", "MUNICIPIO": "CUBILLOS DEL SIL", "COORD__LON": -6.563800, "COORD__LAT": 42.625430, "CODIGO_COL": 24018121 }, "geometry": { "type": "Point", "coordinates": [ -6.5638, 42.62543 ] } },
{ "type": "Feature", "properties": { "DENOMINA_2": "CRA DE EL BURGO RANERO", "PROVINCIA": "LEON", "MUNICIPIO": "BURGO RANERO (EL)", "COORD__LON": -5.219470, "COORD__LAT": 42.421570, "CODIGO_COL": 24018261 }, "geometry": { "type": "Point", "coordinates": [ -5.21947, 42.42157 ] } },
{ "type": "Feature", "properties": { "DENOMINA_2": "CRA DE FERRERAS DE ABAJO", "PROVINCIA": "ZAMORA", "MUNICIPIO": "FERRERAS DE ABAJO", "COORD__LON": -6.074260, "COORD__LAT": 41.897760, "CODIGO_COL": 49007292 }, "geometry": { "type": "Point", "coordinates": [ -6.07426, 41.89776 ] } },
{ "type": "Feature", "properties": { "DENOMINA_2": "CRA DE FONFRIA", "PROVINCIA": "ZAMORA", "MUNICIPIO": "FONFRIA", "COORD__LON": -6.135560, "COORD__LAT": 41.636250, "CODIGO_COL": 49007322 }, "geometry": { "type": "Point", "coordinates": [ -6.13556, 41.63625 ] } },
{ "type": "Feature", "properties": { "DENOMINA_2": "CRA DE GEMA", "PROVINCIA": "ZAMORA", "MUNICIPIO": "GEMA", "COORD__LON": -5.647770, "COORD__LAT": 41.418270, "CODIGO_COL": 49007243 }, "geometry": { "type": "Point", "coordinates": [ -5.64777, 41.41827 ] } },
{ "type": "Feature", "properties": { "DENOMINA_2": "CRA DE HOSPITAL DE ORBIGO", "PROVINCIA": "LEON", "MUNICIPIO": "HOSPITAL DE ORBIGO", "COORD__LON": -5.880790, "COORD__LAT": 42.465600, "CODIGO_COL": 24018283 }, "geometry": { "type": "Point", "coordinates": [ -5.88079, 42.4656 ] } },
{ "type": "Feature", "properties": { "DENOMINA_2": "CRA DE LILLO DEL BIERZO", "PROVINCIA": "LEON", "MUNICIPIO": "FABERO", "COORD__LON": -6.612900, "COORD__LAT": 42.785890, "CODIGO_COL": 24018301 }, "geometry": { "type": "Point", "coordinates": [ -6.6129, 42.78589 ] } },
{ "type": "Feature", "properties": { "DENOMINA_2": "CRA DE MAHIDE", "PROVINCIA": "ZAMORA", "MUNICIPIO": "MAHIDE", "COORD__LON": -6.382520, "COORD__LAT": 41.872040, "CODIGO_COL": 49007346 }, "geometry": { "type": "Point", "coordinates": [ -6.38252, 41.87204 ] } },
{ "type": "Feature", "properties": { "DENOMINA_2": "CRA DE MORALEJA DEL VINO", "PROVINCIA": "ZAMORA", "MUNICIPIO": "MORALEJA DEL VINO", "COORD__LON": -5.658870, "COORD__LAT": 41.465160, "CODIGO_COL": 49007310 }, "geometry": { "type": "Point", "coordinates": [ -5.65887, 41.46516 ] } },
{ "type": "Feature", "properties": { "DENOMINA_2": "CRA DE NOCEDA", "PROVINCIA": "LEON", "MUNICIPIO": "NOCEDA DEL BIERZO", "COORD__LON": -6.508270, "COORD__LAT": 42.699390, "CODIGO_COL": 24018325 }, "geometry": { "type": "Point", "coordinates": [ -6.50827, 42.69939 ] } },
{ "type": "Feature", "properties": { "DENOMINA_2": "CRA DE PALACIOS DE SANABRIA", "PROVINCIA": "ZAMORA", "MUNICIPIO": "PALACIOS DE SANABRIA", "COORD__LON": -6.520260, "COORD__LAT": 42.057200, "CODIGO_COL": 49007267 }, "geometry": { "type": "Point", "coordinates": [ -6.52026, 42.0572 ] } },
{ "type": "Feature", "properties": { "DENOMINA_2": "CRA DE PARAMO DE SIL", "PROVINCIA": "LEON", "MUNICIPIO": "PARAMO DEL SIL", "COORD__LON": -6.497400, "COORD__LAT": 42.819110, "CODIGO_COL": 24018349 }, "geometry": { "type": "Point", "coordinates": [ -6.4974, 42.81911 ] } },
{ "type": "Feature", "properties": { "DENOMINA_2": "CRA DE POSADA DE VALDEON", "PROVINCIA": "LEON", "MUNICIPIO": "POSADA DE VALDEON", "COORD__LON": -4.919610, "COORD__LAT": 43.151760, "CODIGO_COL": 24018350 }, "geometry": { "type": "Point", "coordinates": [ -4.91961, 43.15176 ] } },
{ "type": "Feature", "properties": { "DENOMINA_2": "CRA DE PUEBLA DE LILLO", "PROVINCIA": "LEON", "MUNICIPIO": "PUEBLA DE LILLO", "COORD__LON": -5.268200, "COORD__LAT": 43.003830, "CODIGO_COL": 24018362 }, "geometry": { "type": "Point", "coordinates": [ -5.2682, 43.00383 ] } },
{ "type": "Feature", "properties": { "DENOMINA_2": "CRA DE PUENTE ALMUHEY", "PROVINCIA": "LEON", "MUNICIPIO": "VALDERRUEDA", "COORD__LON": -4.961060, "COORD__LAT": 42.790670, "CODIGO_COL": 24018386 }, "geometry": { "type": "Point", "coordinates": [ -4.96106, 42.79067 ] } },
{ "type": "Feature", "properties": { "DENOMINA_2": "CRA DE PUENTE DE DOMINGO FLOREZ", "PROVINCIA": "LEON", "MUNICIPIO": "PUENTE DE DOMINGO FLOREZ", "COORD__LON": -6.824060, "COORD__LAT": 42.414380, "CODIGO_COL": 24018076 }, "geometry": { "type": "Point", "coordinates": [ -6.82406, 42.41438 ] } },
{ "type": "Feature", "properties": { "DENOMINA_2": "CRA DE QUILOS", "PROVINCIA": "LEON", "MUNICIPIO": "CACABELOS", "COORD__LON": -6.722600, "COORD__LAT": 42.632220, "CODIGO_COL": 24018091 }, "geometry": { "type": "Point", "coordinates": [ -6.7226, 42.63222 ] } },
{ "type": "Feature", "properties": { "DENOMINA_2": "CRA DE QUINTANA DE RUEDA", "PROVINCIA": "LEON", "MUNICIPIO": "VALDEPOLO", "COORD__LON": -5.262790, "COORD__LAT": 42.578220, "CODIGO_COL": 24018398 }, "geometry": { "type": "Point", "coordinates": [ -5.26279, 42.57822 ] } },
{ "type": "Feature", "properties": { "DENOMINA_2": "CRA DE RIANO", "PROVINCIA": "LEON", "MUNICIPIO": "RIANO", "COORD__LON": -5.001550, "COORD__LAT": 42.975920, "CODIGO_COL": 24018416 }, "geometry": { "type": "Point", "coordinates": [ -5.00155, 42.97592 ] } },
{ "type": "Feature", "properties": { "DENOMINA_2": "CRA DE RIAZA", "PROVINCIA": "SEGOVIA", "MUNICIPIO": "RIAZA", "COORD__LON": -3.476250, "COORD__LAT": 41.277680, "CODIGO_COL": 40005021 }, "geometry": { "type": "Point", "coordinates": [ -3.47625, 41.27768 ] } },
{ "type": "Feature", "properties": { "DENOMINA_2": "CRA DE RIELLO", "PROVINCIA": "LEON", "MUNICIPIO": "RIELLO", "COORD__LON": -5.945010, "COORD__LAT": 42.773040, "CODIGO_COL": 24018428 }, "geometry": { "type": "Point", "coordinates": [ -5.94501, 42.77304 ] } },
{ "type": "Feature", "properties": { "DENOMINA_2": "CRA DE RIOFRIO DE ALISTE", "PROVINCIA": "ZAMORA", "MUNICIPIO": "RIOFRIO DE ALISTE", "COORD__LON": -6.176330, "COORD__LAT": 41.815910, "CODIGO_COL": 49003675 }, "geometry": { "type": "Point", "coordinates": [ -6.17633, 41.81591 ] } },
{ "type": "Feature", "properties": { "DENOMINA_2": "CRA DE SANTA MARINA DEL REY", "PROVINCIA": "LEON", "MUNICIPIO": "SANTA MARINA DEL REY", "COORD__LON": -5.857840, "COORD__LAT": 42.512870, "CODIGO_COL": 24018453 }, "geometry": { "type": "Point", "coordinates": [ -5.85784, 42.51287 ] } },
{ "type": "Feature", "properties": { "DENOMINA_2": "CRA DE SOTO DE LA VEGA", "PROVINCIA": "LEON", "MUNICIPIO": "SOTO DE LA VEGA", "COORD__LON": -5.881390, "COORD__LAT": 42.332000, "CODIGO_COL": 24018489 }, "geometry": { "type": "Point", "coordinates": [ -5.88139, 42.332 ] } },
{ "type": "Feature", "properties": { "DENOMINA_2": "CRA DE TABARA", "PROVINCIA": "ZAMORA", "MUNICIPIO": "TABARA", "COORD__LON": -5.964240, "COORD__LAT": 41.827640, "CODIGO_COL": 49007280 }, "geometry": { "type": "Point", "coordinates": [ -5.96424, 41.82764 ] } },
{ "type": "Feature", "properties": { "DENOMINA_2": "CRA DE TORAL DE MERAYO", "PROVINCIA": "LEON", "MUNICIPIO": "PONFERRADA", "COORD__LON": -6.634910, "COORD__LAT": 42.524590, "CODIGO_COL": 24018192 }, "geometry": { "type": "Point", "coordinates": [ -6.63491, 42.52459 ] } },
{ "type": "Feature", "properties": { "DENOMINA_2": "CRA DE TREMOR DE ARRIBA", "PROVINCIA": "LEON", "MUNICIPIO": "IGÜENA", "COORD__LON": -6.208040, "COORD__LAT": 42.725650, "CODIGO_COL": 24018490 }, "geometry": { "type": "Point", "coordinates": [ -6.20804, 42.72565 ] } },
{ "type": "Feature", "properties": { "DENOMINA_2": "CRA DE TROBAJO DEL CERECEDO", "PROVINCIA": "LEON", "MUNICIPIO": "LEON", "COORD__LON": -5.577510, "COORD__LAT": 42.568110, "CODIGO_COL": 24017990 }, "geometry": { "type": "Point", "coordinates": [ -5.57751, 42.56811 ] } },
{ "type": "Feature", "properties": { "DENOMINA_2": "CRA DE VILLACEDRE", "PROVINCIA": "LEON", "MUNICIPIO": "SANTOVENIA DE LA VALDONCINA", "COORD__LON": -5.591490, "COORD__LAT": 42.557810, "CODIGO_COL": 24018519 }, "geometry": { "type": "Point", "coordinates": [ -5.59149, 42.55781 ] } },
{ "type": "Feature", "properties": { "DENOMINA_2": "CRA DE VILLAFAFILA", "PROVINCIA": "ZAMORA", "MUNICIPIO": "VILLAFAFILA", "COORD__LON": -5.613730, "COORD__LAT": 41.846870, "CODIGO_COL": 49007413 }, "geometry": { "type": "Point", "coordinates": [ -5.61373, 41.84687 ] } },
{ "type": "Feature", "properties": { "DENOMINA_2": "CRA DE VILLAGER DE LACIANA", "PROVINCIA": "LEON", "MUNICIPIO": "VILLABLINO", "COORD__LON": -6.342480, "COORD__LAT": 42.943870, "CODIGO_COL": 24018180 }, "geometry": { "type": "Point", "coordinates": [ -6.34248, 42.94387 ] } },
{ "type": "Feature", "properties": { "DENOMINA_2": "CRA DE VILLAMANAN", "PROVINCIA": "LEON", "MUNICIPIO": "VILLAMANAN", "COORD__LON": -5.586270, "COORD__LAT": 42.320020, "CODIGO_COL": 24018532 }, "geometry": { "type": "Point", "coordinates": [ -5.58627, 42.32002 ] } },
{ "type": "Feature", "properties": { "DENOMINA_2": "CRA DE VILLANUEVA DEL CAMPO", "PROVINCIA": "ZAMORA", "MUNICIPIO": "VILLANUEVA DEL CAMPO", "COORD__LON": -5.402810, "COORD__LAT": 41.988570, "CODIGO_COL": 49007395 }, "geometry": { "type": "Point", "coordinates": [ -5.40281, 41.98857 ] } },
{ "type": "Feature", "properties": { "DENOMINA_2": "CRA DE VILLAQUILAMBRE", "PROVINCIA": "LEON", "MUNICIPIO": "VILLAQUILAMBRE", "COORD__LON": -5.557580, "COORD__LAT": 42.638860, "CODIGO_COL": 24018313 }, "geometry": { "type": "Point", "coordinates": [ -5.55758, 42.63886 ] } },
{ "type": "Feature", "properties": { "DENOMINA_2": "CRA DE VILLARIN DE CAMPOS", "PROVINCIA": "ZAMORA", "MUNICIPIO": "VILLARRIN DE CAMPOS", "COORD__LON": -5.638410, "COORD__LAT": 41.797980, "CODIGO_COL": 49007309 }, "geometry": { "type": "Point", "coordinates": [ -5.63841, 41.79798 ] } },
{ "type": "Feature", "properties": { "DENOMINA_2": "CRA DEL CERRATO", "PROVINCIA": "PALENCIA", "MUNICIPIO": "TARIEGO DE CERRATO", "COORD__LON": -4.481750, "COORD__LAT": 41.905890, "CODIGO_COL": 34003737 }, "geometry": { "type": "Point", "coordinates": [ -4.48175, 41.90589 ] } },
{ "type": "Feature", "properties": { "DENOMINA_2": "CRA DIEGO MARIN", "PROVINCIA": "BURGOS", "MUNICIPIO": "PENARANDA DE DUERO", "COORD__LON": -3.479240, "COORD__LAT": 41.688110, "CODIGO_COL": 9008691 }, "geometry": { "type": "Point", "coordinates": [ -3.47924, 41.68811 ] } },
{ "type": "Feature", "properties": { "DENOMINA_2": "CRA DOMINGO DE GUZMAN", "PROVINCIA": "SALAMANCA", "MUNICIPIO": "DONINOS DE SALAMANCA", "COORD__LON": -5.748720, "COORD__LAT": 40.959340, "CODIGO_COL": 37009520 }, "geometry": { "type": "Point", "coordinates": [ -5.74872, 40.95934 ] } },
{ "type": "Feature", "properties": { "DENOMINA_2": "CRA EL ALTOZANO", "PROVINCIA": "SALAMANCA", "MUNICIPIO": "SEQUEROS", "COORD__LON": -6.039340, "COORD__LAT": 40.505580, "CODIGO_COL": 37009601 }, "geometry": { "type": "Point", "coordinates": [ -6.03934, 40.50558 ] } },
{ "type": "Feature", "properties": { "DENOMINA_2": "CRA EL BARRANCO", "PROVINCIA": "AVILA", "MUNICIPIO": "SAN ESTEBAN DEL VALLE", "COORD__LON": -4.982990, "COORD__LAT": 40.275610, "CODIGO_COL": 5005887 }, "geometry": { "type": "Point", "coordinates": [ -4.98299, 40.27561 ] } },
{ "type": "Feature", "properties": { "DENOMINA_2": "CRA EL CALVITERO", "PROVINCIA": "AVILA", "MUNICIPIO": "HORCAJADA (LA)", "COORD__LON": -5.468460, "COORD__LAT": 40.434220, "CODIGO_COL": 5006053 }, "geometry": { "type": "Point", "coordinates": [ -5.46846, 40.43422 ] } },
{ "type": "Feature", "properties": { "DENOMINA_2": "CRA EL CARRACILLO", "PROVINCIA": "SEGOVIA", "MUNICIPIO": "SANCHONUNO", "COORD__LON": -4.306380, "COORD__LAT": 41.323020, "CODIGO_COL": 40004890 }, "geometry": { "type": "Point", "coordinates": [ -4.30638, 41.32302 ] } },
{ "type": "Feature", "properties": { "DENOMINA_2": "CRA EL ENCINAR", "PROVINCIA": "SEGOVIA", "MUNICIPIO": "LOSA (LA)", "COORD__LON": -4.159160, "COORD__LAT": 40.852110, "CODIGO_COL": 40004762 }, "geometry": { "type": "Point", "coordinates": [ -4.15916, 40.85211 ] } },
{ "type": "Feature", "properties": { "DENOMINA_2": "CRA EL JALON", "PROVINCIA": "SORIA", "MUNICIPIO": "ARCOS DE JALON", "COORD__LON": -2.275310, "COORD__LAT": 41.216080, "CODIGO_COL": 42003712 }, "geometry": { "type": "Point", "coordinates": [ -2.27531, 41.21608 ] } },
{ "type": "Feature", "properties": { "DENOMINA_2": "CRA EL OLMAR", "PROVINCIA": "SEGOVIA", "MUNICIPIO": "OLOMBRADA", "COORD__LON": -4.161370, "COORD__LAT": 41.417100, "CODIGO_COL": 40004865 }, "geometry": { "type": "Point", "coordinates": [ -4.16137, 41.4171 ] } },
{ "type": "Feature", "properties": { "DENOMINA_2": "CRA EL PARAMO", "PROVINCIA": "VALLADOLID", "MUNICIPIO": "VILLANUBLA", "COORD__LON": -4.837630, "COORD__LAT": 41.698640, "CODIGO_COL": 47007264 }, "geometry": { "type": "Point", "coordinates": [ -4.83763, 41.69864 ] } },
{ "type": "Feature", "properties": { "DENOMINA_2": "CRA EL PINAR", "PROVINCIA": "SEGOVIA", "MUNICIPIO": "NAVAS DE ORO", "COORD__LON": -4.439830, "COORD__LAT": 41.192430, "CODIGO_COL": 40004971 }, "geometry": { "type": "Point", "coordinates": [ -4.43983, 41.19243 ] } },
{ "type": "Feature", "properties": { "DENOMINA_2": "CRA EL PIZARRAL", "PROVINCIA": "SEGOVIA", "MUNICIPIO": "SANTA MARIA LA REAL DE NIEVA", "COORD__LON": -4.405910, "COORD__LAT": 41.069140, "CODIGO_COL": 40004907 }, "geometry": { "type": "Point", "coordinates": [ -4.40591, 41.06914 ] } },
{ "type": "Feature", "properties": { "DENOMINA_2": "CRA EL REDONDAL", "PROVINCIA": "LEON", "MUNICIPIO": "CASTROPODAME", "COORD__LON": -6.440010, "COORD__LAT": 42.602950, "CODIGO_COL": 24018209 }, "geometry": { "type": "Point", "coordinates": [ -6.44001, 42.60295 ] } },
{ "type": "Feature", "properties": { "DENOMINA_2": "CRA EL ROBLEDAL", "PROVINCIA": "SALAMANCA", "MUNICIPIO": "ROBLEDA", "COORD__LON": -6.608460, "COORD__LAT": 40.385090, "CODIGO_COL": 37009571 }, "geometry": { "type": "Point", "coordinates": [ -6.60846, 40.38509 ] } },
{ "type": "Feature", "properties": { "DENOMINA_2": "CRA EL TOMILLAR", "PROVINCIA": "SALAMANCA", "MUNICIPIO": "VILLAR DE PERALONSO", "COORD__LON": -6.222240, "COORD__LAT": 41.030850, "CODIGO_COL": 37009647 }, "geometry": { "type": "Point", "coordinates": [ -6.22224, 41.03085 ] } },
{ "type": "Feature", "properties": { "DENOMINA_2": "CRA EL VALLE", "PROVINCIA": "SORIA", "MUNICIPIO": "ALMARZA", "COORD__LON": -2.466780, "COORD__LAT": 41.947270, "CODIGO_COL": 42003773 }, "geometry": { "type": "Point", "coordinates": [ -2.46678, 41.94727 ] } },
{ "type": "Feature", "properties": { "DENOMINA_2": "CRA EL VALLE", "PROVINCIA": "AVILA", "MUNICIPIO": "VILLAREJO DEL VALLE", "COORD__LON": -4.996750, "COORD__LAT": 40.286900, "CODIGO_COL": 5005978 }, "geometry": { "type": "Point", "coordinates": [ -4.99675, 40.2869 ] } },
{ "type": "Feature", "properties": { "DENOMINA_2": "CRA ENTRE DOS RIOS", "PROVINCIA": "SEGOVIA", "MUNICIPIO": "FUENTERREBOLLO", "COORD__LON": -3.932480, "COORD__LAT": 41.294760, "CODIGO_COL": 40004841 }, "geometry": { "type": "Point", "coordinates": [ -3.93248, 41.29476 ] } },
{ "type": "Feature", "properties": { "DENOMINA_2": "CRA ENTREVINAS", "PROVINCIA": "VALLADOLID", "MUNICIPIO": "FUENSALDANA", "COORD__LON": -4.759600, "COORD__LAT": 41.706900, "CODIGO_COL": 47007151 }, "geometry": { "type": "Point", "coordinates": [ -4.7596, 41.7069 ] } },
{ "type": "Feature", "properties": { "DENOMINA_2": "CRA ERIA-JAMUZ", "PROVINCIA": "LEON", "MUNICIPIO": "SANTA ELENA DE JAMUZ", "COORD__LON": -5.929100, "COORD__LAT": 42.263920, "CODIGO_COL": 24018143 }, "geometry": { "type": "Point", "coordinates": [ -5.9291, 42.26392 ] } },
{ "type": "Feature", "properties": { "DENOMINA_2": "CRA EUSEBIA PALOMINO", "PROVINCIA": "SALAMANCA", "MUNICIPIO": "CANTALPINO", "COORD__LON": -5.333300, "COORD__LAT": 41.056010, "CODIGO_COL": 37009465 }, "geometry": { "type": "Point", "coordinates": [ -5.3333, 41.05601 ] } },
{ "type": "Feature", "properties": { "DENOMINA_2": "CRA FLORIDA DEL DUERO", "PROVINCIA": "VALLADOLID", "MUNICIPIO": "CASTRONUNO", "COORD__LON": -5.260730, "COORD__LAT": 41.389950, "CODIGO_COL": 47007203 }, "geometry": { "type": "Point", "coordinates": [ -5.26073, 41.38995 ] } },
{ "type": "Feature", "properties": { "DENOMINA_2": "CRA FUENTEADAJA", "PROVINCIA": "AVILA", "MUNICIPIO": "MUNANA", "COORD__LON": -5.015130, "COORD__LAT": 40.588900, "CODIGO_COL": 5005930 }, "geometry": { "type": "Point", "coordinates": [ -5.01513, 40.5889 ] } },
{ "type": "Feature", "properties": { "DENOMINA_2": "CRA FUENTEGUINALDO-AZABA", "PROVINCIA": "SALAMANCA", "MUNICIPIO": "FUENTEGUINALDO", "COORD__LON": -6.675200, "COORD__LAT": 40.430250, "CODIGO_COL": 37009854 }, "geometry": { "type": "Point", "coordinates": [ -6.6752, 40.43025 ] } },
{ "type": "Feature", "properties": { "DENOMINA_2": "CRA GUARENA", "PROVINCIA": "ZAMORA", "MUNICIPIO": "GUARRATE", "COORD__LON": -5.445210, "COORD__LAT": 41.288110, "CODIGO_COL": 49007221 }, "geometry": { "type": "Point", "coordinates": [ -5.44521, 41.28811 ] } },
{ "type": "Feature", "properties": { "DENOMINA_2": "CRA JIMENA MUNIZ", "PROVINCIA": "LEON", "MUNICIPIO": "CORULLON", "COORD__LON": -6.818090, "COORD__LAT": 42.581360, "CODIGO_COL": 24003607 }, "geometry": { "type": "Point", "coordinates": [ -6.81809, 42.58136 ] } },
{ "type": "Feature", "properties": { "DENOMINA_2": "CRA LA ABADIA", "PROVINCIA": "LEON", "MUNICIPIO": "CARRACEDELO", "COORD__LON": -6.716090, "COORD__LAT": 42.526100, "CODIGO_COL": 24002391 }, "geometry": { "type": "Point", "coordinates": [ -6.71609, 42.5261 ] } },
{ "type": "Feature", "properties": { "DENOMINA_2": "CRA LA BESANA", "PROVINCIA": "VALLADOLID", "MUNICIPIO": "MOTA DEL MARQUES", "COORD__LON": -5.173900, "COORD__LAT": 41.632770, "CODIGO_COL": 47007161 }, "geometry": { "type": "Point", "coordinates": [ -5.1739, 41.63277 ] } },
{ "type": "Feature", "properties": { "DENOMINA_2": "CRA LA DEMANDA", "PROVINCIA": "BURGOS", "MUNICIPIO": "HUERTA DE REY", "COORD__LON": -3.353450, "COORD__LAT": 41.837950, "CODIGO_COL": 9004798 }, "geometry": { "type": "Point", "coordinates": [ -3.35345, 41.83795 ] } },
{ "type": "Feature", "properties": { "DENOMINA_2": "CRA LA ESGUEVA", "PROVINCIA": "VALLADOLID", "MUNICIPIO": "ESGUEVILLAS DE ESGUEVA", "COORD__LON": -4.382410, "COORD__LAT": 41.746170, "CODIGO_COL": 47007215 }, "geometry": { "type": "Point", "coordinates": [ -4.38241, 41.74617 ] } },
{ "type": "Feature", "properties": { "DENOMINA_2": "CRA LA FLECHA", "PROVINCIA": "SALAMANCA", "MUNICIPIO": "CABRERIZOS", "COORD__LON": -5.662040, "COORD__LAT": 40.970190, "CODIGO_COL": 37009817 }, "geometry": { "type": "Point", "coordinates": [ -5.66204, 40.97019 ] } },
{ "type": "Feature", "properties": { "DENOMINA_2": "CRA LA GAZNATA", "PROVINCIA": "AVILA", "MUNICIPIO": "SAN BARTOLOME DE PINARES", "COORD__LON": -4.540870, "COORD__LAT": 40.542270, "CODIGO_COL": 5005981 }, "geometry": { "type": "Point", "coordinates": [ -4.54087, 40.54227 ] } },
{ "type": "Feature", "properties": { "DENOMINA_2": "CRA LA RIBERA", "PROVINCIA": "SORIA", "MUNICIPIO": "LANGA DE DUERO", "COORD__LON": -3.402070, "COORD__LAT": 41.609670, "CODIGO_COL": 42004005 }, "geometry": { "type": "Point", "coordinates": [ -3.40207, 41.60967 ] } },
{ "type": "Feature", "properties": { "DENOMINA_2": "CRA LA RIBERA", "PROVINCIA": "SALAMANCA", "MUNICIPIO": "ALDEADAVILA DE LA RIBERA", "COORD__LON": -6.613270, "COORD__LAT": 41.216210, "CODIGO_COL": 37009416 }, "geometry": { "type": "Point", "coordinates": [ -6.61327, 41.21621 ] } },
{ "type": "Feature", "properties": { "DENOMINA_2": "CRA LA SENARA", "PROVINCIA": "SALAMANCA", "MUNICIPIO": "CUBO DE DON SANCHO (EL)", "COORD__LON": -6.304150, "COORD__LAT": 40.889030, "CODIGO_COL": 37009908 }, "geometry": { "type": "Point", "coordinates": [ -6.30415, 40.88903 ] } },
{ "type": "Feature", "properties": { "DENOMINA_2": "CRA LA SERREZUELA", "PROVINCIA": "AVILA", "MUNICIPIO": "SANTA MARIA DEL BERROCAL", "COORD__LON": -5.405080, "COORD__LAT": 40.509180, "CODIGO_COL": 5001730 }, "geometry": { "type": "Point", "coordinates": [ -5.40508, 40.50918 ] } },
{ "type": "Feature", "properties": { "DENOMINA_2": "CRA LA SIERRA", "PROVINCIA": "AVILA", "MUNICIPIO": "CILLAN", "COORD__LON": -4.975590, "COORD__LAT": 40.706200, "CODIGO_COL": 5005942 }, "geometry": { "type": "Point", "coordinates": [ -4.97559, 40.7062 ] } },
{ "type": "Feature", "properties": { "DENOMINA_2": "CRA LA VILLA", "PROVINCIA": "VALLADOLID", "MUNICIPIO": "PENAFIEL", "COORD__LON": -4.124160, "COORD__LAT": 41.595870, "CODIGO_COL": 47007331 }, "geometry": { "type": "Point", "coordinates": [ -4.12416, 41.59587 ] } },
{ "type": "Feature", "properties": { "DENOMINA_2": "CRA LAGUNA DALGA", "PROVINCIA": "LEON", "MUNICIPIO": "LAGUNA DALGA", "COORD__LON": -5.756970, "COORD__LAT": 42.331520, "CODIGO_COL": 24018295 }, "geometry": { "type": "Point", "coordinates": [ -5.75697, 42.33152 ] } },
{ "type": "Feature", "properties": { "DENOMINA_2": "CRA LAS CANADAS", "PROVINCIA": "SEGOVIA", "MUNICIPIO": "AGUILAFUENTE", "COORD__LON": -4.111640, "COORD__LAT": 41.226170, "CODIGO_COL": 40004828 }, "geometry": { "type": "Point", "coordinates": [ -4.11164, 41.22617 ] } },
{ "type": "Feature", "properties": { "DENOMINA_2": "CRA LAS CINCO ENCINAS", "PROVINCIA": "SALAMANCA", "MUNICIPIO": "GALINDUSTE", "COORD__LON": -5.538700, "COORD__LAT": 40.663780, "CODIGO_COL": 37009519 }, "geometry": { "type": "Point", "coordinates": [ -5.5387, 40.66378 ] } },
{ "type": "Feature", "properties": { "DENOMINA_2": "CRA LAS COGOTAS", "PROVINCIA": "AVILA", "MUNICIPIO": "CARDENOSA", "COORD__LON": -4.746690, "COORD__LAT": 40.741050, "CODIGO_COL": 5005954 }, "geometry": { "type": "Point", "coordinates": [ -4.74669, 40.74105 ] } },
{ "type": "Feature", "properties": { "DENOMINA_2": "CRA LAS DEHESAS", "PROVINCIA": "SALAMANCA", "MUNICIPIO": "TAMAMES", "COORD__LON": -6.105370, "COORD__LAT": 40.656790, "CODIGO_COL": 37009891 }, "geometry": { "type": "Point", "coordinates": [ -6.10537, 40.65679 ] } },
{ "type": "Feature", "properties": { "DENOMINA_2": "CRA LAS TORRES", "PROVINCIA": "AVILA", "MUNICIPIO": "MIJARES", "COORD__LON": -4.838750, "COORD__LAT": 40.296810, "CODIGO_COL": 5006016 }, "geometry": { "type": "Point", "coordinates": [ -4.83875, 40.29681 ] } },
{ "type": "Feature", "properties": { "DENOMINA_2": "CRA LLANO ALTO", "PROVINCIA": "VALLADOLID", "MUNICIPIO": "ATAQUINES", "COORD__LON": -4.798670, "COORD__LAT": 41.180830, "CODIGO_COL": 47007148 }, "geometry": { "type": "Point", "coordinates": [ -4.79867, 41.18083 ] } },
{ "type": "Feature", "properties": { "DENOMINA_2": "CRA LLANOGRANDE", "PROVINCIA": "SALAMANCA", "MUNICIPIO": "VALDECARROS", "COORD__LON": -5.423010, "COORD__LAT": 40.769600, "CODIGO_COL": 37009623 }, "geometry": { "type": "Point", "coordinates": [ -5.42301, 40.7696 ] } },
{ "type": "Feature", "properties": { "DENOMINA_2": "CRA LLANOS DE MORANA", "PROVINCIA": "AVILA", "MUNICIPIO": "SAN PEDRO DEL ARROYO", "COORD__LON": -4.872980, "COORD__LAT": 40.800780, "CODIGO_COL": 5006065 }, "geometry": { "type": "Point", "coordinates": [ -4.87298, 40.80078 ] } },
{ "type": "Feature", "properties": { "DENOMINA_2": "CRA LOPE DE VEGA", "PROVINCIA": "SALAMANCA", "MUNICIPIO": "GARCIHERNANDEZ", "COORD__LON": -5.432440, "COORD__LAT": 40.860200, "CODIGO_COL": 37009805 }, "geometry": { "type": "Point", "coordinates": [ -5.43244, 40.8602 ] } },
{ "type": "Feature", "properties": { "DENOMINA_2": "CRA LOS ALMENDROS", "PROVINCIA": "ZAMORA", "MUNICIPIO": "BOVEDA DE TORO (LA)", "COORD__LON": -5.411910, "COORD__LAT": 41.344320, "CODIGO_COL": 49007498 }, "geometry": { "type": "Point", "coordinates": [ -5.41191, 41.34432 ] } },
{ "type": "Feature", "properties": { "DENOMINA_2": "CRA LOS ALMENDROS", "PROVINCIA": "SEGOVIA", "MUNICIPIO": "LASTRILLA (LA)", "COORD__LON": -4.102010, "COORD__LAT": 40.966670, "CODIGO_COL": 40008342 }, "geometry": { "type": "Point", "coordinates": [ -4.10201, 40.96667 ] } },
{ "type": "Feature", "properties": { "DENOMINA_2": "CRA LOS ARAPILES", "PROVINCIA": "SALAMANCA", "MUNICIPIO": "ALDEATEJADA", "COORD__LON": -5.693800, "COORD__LAT": 40.920460, "CODIGO_COL": 37009489 }, "geometry": { "type": "Point", "coordinates": [ -5.6938, 40.92046 ] } },
{ "type": "Feature", "properties": { "DENOMINA_2": "CRA LOS ARRIBES", "PROVINCIA": "SALAMANCA", "MUNICIPIO": "VILLARINO DE LOS AIRES", "COORD__LON": -6.465710, "COORD__LAT": 41.268210, "CODIGO_COL": 37009660 }, "geometry": { "type": "Point", "coordinates": [ -6.46571, 41.26821 ] } },
{ "type": "Feature", "properties": { "DENOMINA_2": "CRA LOS CARRASCALES", "PROVINCIA": "SALAMANCA", "MUNICIPIO": "MATILLA DE LOS CANOS DEL RIO", "COORD__LON": -5.945680, "COORD__LAT": 40.822990, "CODIGO_COL": 37001739 }, "geometry": { "type": "Point", "coordinates": [ -5.94568, 40.82299 ] } },
{ "type": "Feature", "properties": { "DENOMINA_2": "CRA LOS CEREZOS", "PROVINCIA": "SALAMANCA", "MUNICIPIO": "SOTOSERRANO", "COORD__LON": -6.031240, "COORD__LAT": 40.435120, "CODIGO_COL": 37009611 }, "geometry": { "type": "Point", "coordinates": [ -6.03124, 40.43512 ] } },
{ "type": "Feature", "properties": { "DENOMINA_2": "CRA LOS FRESNOS", "PROVINCIA": "AVILA", "MUNICIPIO": "FRESNO (EL)", "COORD__LON": -4.748900, "COORD__LAT": 40.615850, "CODIGO_COL": 5005966 }, "geometry": { "type": "Point", "coordinates": [ -4.7489, 40.61585 ] } },
{ "type": "Feature", "properties": { "DENOMINA_2": "CRA LOS GIRASOLES", "PROVINCIA": "SALAMANCA", "MUNICIPIO": "CALVARRASA DE ABAJO", "COORD__LON": -5.553540, "COORD__LAT": 40.947550, "CODIGO_COL": 37009507 }, "geometry": { "type": "Point", "coordinates": [ -5.55354, 40.94755 ] } },
{ "type": "Feature", "properties": { "DENOMINA_2": "CRA LOS JARALES", "PROVINCIA": "SALAMANCA", "MUNICIPIO": "SAN MIGUEL DE VALERO", "COORD__LON": -5.921680, "COORD__LAT": 40.540760, "CODIGO_COL": 37009581 }, "geometry": { "type": "Point", "coordinates": [ -5.92168, 40.54076 ] } },
{ "type": "Feature", "properties": { "DENOMINA_2": "CRA LOS LLANOS", "PROVINCIA": "SEGOVIA", "MUNICIPIO": "VALVERDE DEL MAJANO", "COORD__LON": -4.234220, "COORD__LAT": 40.957200, "CODIGO_COL": 40004920 }, "geometry": { "type": "Point", "coordinates": [ -4.23422, 40.9572 ] } },
{ "type": "Feature", "properties": { "DENOMINA_2": "CRA LOS REGAJALES", "PROVINCIA": "AVILA", "MUNICIPIO": "NAVA DE AREVALO", "COORD__LON": -4.774830, "COORD__LAT": 40.974410, "CODIGO_COL": 5006031 }, "geometry": { "type": "Point", "coordinates": [ -4.77483, 40.97441 ] } },
{ "type": "Feature", "properties": { "DENOMINA_2": "CRA LOS ROBLES", "PROVINCIA": "SALAMANCA", "MUNICIPIO": "LEDRADA", "COORD__LON": -5.708530, "COORD__LAT": 40.498070, "CODIGO_COL": 37009878 }, "geometry": { "type": "Point", "coordinates": [ -5.70853, 40.49807 ] } },
{ "type": "Feature", "properties": { "DENOMINA_2": "CRA LOS TRES VALLES", "PROVINCIA": "LEON", "MUNICIPIO": "VALDEVIMBRE", "COORD__LON": -5.621780, "COORD__LAT": 42.420260, "CODIGO_COL": 24018106 }, "geometry": { "type": "Point", "coordinates": [ -5.62178, 42.42026 ] } },
{ "type": "Feature", "properties": { "DENOMINA_2": "CRA MAESTRO EMILIO ALONSO", "PROVINCIA": "LEON", "MUNICIPIO": "CUADROS", "COORD__LON": -5.633120, "COORD__LAT": 42.668230, "CODIGO_COL": 24018179 }, "geometry": { "type": "Point", "coordinates": [ -5.63312, 42.66823 ] } },
{ "type": "Feature", "properties": { "DENOMINA_2": "CRA MARCIAL ALVAREZ CELA", "PROVINCIA": "LEON", "MUNICIPIO": "VEGA DE VALCARCE", "COORD__LON": -6.946990, "COORD__LAT": 42.663420, "CODIGO_COL": 24018507 }, "geometry": { "type": "Point", "coordinates": [ -6.94699, 42.66342 ] } },
{ "type": "Feature", "properties": { "DENOMINA_2": "CRA MARIA MAGDALENA", "PROVINCIA": "SALAMANCA", "MUNICIPIO": "CABEZA DEL CABALLO", "COORD__LON": -6.550810, "COORD__LAT": 41.163940, "CODIGO_COL": 37009441 }, "geometry": { "type": "Point", "coordinates": [ -6.55081, 41.16394 ] } },
{ "type": "Feature", "properties": { "DENOMINA_2": "CRA MIGUEL DELIBES", "PROVINCIA": "AVILA", "MUNICIPIO": "MINGORRIA", "COORD__LON": -4.664040, "COORD__LAT": 40.750200, "CODIGO_COL": 5002722 }, "geometry": { "type": "Point", "coordinates": [ -4.66404, 40.7502 ] } },
{ "type": "Feature", "properties": { "DENOMINA_2": "CRA MONTEARLANZA", "PROVINCIA": "BURGOS", "MUNICIPIO": "VILLALMANZO", "COORD__LON": -3.740630, "COORD__LAT": 42.048780, "CODIGO_COL": 9008743 }, "geometry": { "type": "Point", "coordinates": [ -3.74063, 42.04878 ] } },
{ "type": "Feature", "properties": { "DENOMINA_2": "CRA MORANA BAJA", "PROVINCIA": "AVILA", "MUNICIPIO": "MAMBLAS", "COORD__LON": -5.012900, "COORD__LAT": 41.018620, "CODIGO_COL": 5006090 }, "geometry": { "type": "Point", "coordinates": [ -5.0129, 41.01862 ] } },
{ "type": "Feature", "properties": { "DENOMINA_2": "CRA NAVAS DEL ALBERCHE", "PROVINCIA": "AVILA", "MUNICIPIO": "NAVALMORAL", "COORD__LON": -4.766710, "COORD__LAT": 40.459860, "CODIGO_COL": 5006144 }, "geometry": { "type": "Point", "coordinates": [ -4.76671, 40.45986 ] } },
{ "type": "Feature", "properties": { "DENOMINA_2": "CRA NUEZ DE ALISTE", "PROVINCIA": "ZAMORA", "MUNICIPIO": "TRABAZOS", "COORD__LON": -6.515310, "COORD__LAT": 41.775970, "CODIGO_COL": 49007361 }, "geometry": { "type": "Point", "coordinates": [ -6.51531, 41.77597 ] } },
{ "type": "Feature", "properties": { "DENOMINA_2": "CRA PADRE HOYOS", "PROVINCIA": "VALLADOLID", "MUNICIPIO": "TORRELOBATON", "COORD__LON": -5.028030, "COORD__LAT": 41.648800, "CODIGO_COL": 47007252 }, "geometry": { "type": "Point", "coordinates": [ -5.02803, 41.6488 ] } },
{ "type": "Feature", "properties": { "DENOMINA_2": "CRA PENA DE FRANCIA", "PROVINCIA": "SALAMANCA", "MUNICIPIO": "MAILLO (EL)", "COORD__LON": -6.181400, "COORD__LAT": 40.565560, "CODIGO_COL": 37009556 }, "geometry": { "type": "Point", "coordinates": [ -6.1814, 40.56556 ] } },
{ "type": "Feature", "properties": { "DENOMINA_2": "CRA PEREZ VILLANUEVA", "PROVINCIA": "SALAMANCA", "MUNICIPIO": "BARRUECOPARDO", "COORD__LON": -6.663930, "COORD__LAT": 41.073490, "CODIGO_COL": 37009431 }, "geometry": { "type": "Point", "coordinates": [ -6.66393, 41.07349 ] } },
{ "type": "Feature", "properties": { "DENOMINA_2": "CRA PINAR GRANDE", "PROVINCIA": "SORIA", "MUNICIPIO": "NAVALENO", "COORD__LON": -3.004640, "COORD__LAT": 41.837040, "CODIGO_COL": 42003840 }, "geometry": { "type": "Point", "coordinates": [ -3.00464, 41.83704 ] } },
{ "type": "Feature", "properties": { "DENOMINA_2": "CRA PINARES ALTOS", "PROVINCIA": "SORIA", "MUNICIPIO": "VINUESA", "COORD__LON": -2.764280, "COORD__LAT": 41.911910, "CODIGO_COL": 42003852 }, "geometry": { "type": "Point", "coordinates": [ -2.76428, 41.91191 ] } },
{ "type": "Feature", "properties": { "DENOMINA_2": "CRA PINARES SUR", "PROVINCIA": "SORIA", "MUNICIPIO": "CASAREJOS", "COORD__LON": -3.031760, "COORD__LAT": 41.796790, "CODIGO_COL": 42003827 }, "geometry": { "type": "Point", "coordinates": [ -3.03176, 41.79679 ] } },
{ "type": "Feature", "properties": { "DENOMINA_2": "CRA RETAMA", "PROVINCIA": "SEGOVIA", "MUNICIPIO": "CHANE", "COORD__LON": -4.365040, "COORD__LAT": 41.311380, "CODIGO_COL": 40004831 }, "geometry": { "type": "Point", "coordinates": [ -4.36504, 41.31138 ] } },
{ "type": "Feature", "properties": { "DENOMINA_2": "CRA REYES CATOLICOS", "PROVINCIA": "SEGOVIA", "MUNICIPIO": "TUREGANO", "COORD__LON": -4.006760, "COORD__LAT": 41.154310, "CODIGO_COL": 40004919 }, "geometry": { "type": "Point", "coordinates": [ -4.00676, 41.15431 ] } },
{ "type": "Feature", "properties": { "DENOMINA_2": "CRA RIBERA DE CANEDO", "PROVINCIA": "SALAMANCA", "MUNICIPIO": "CALZADA DE VALDUNCIEL", "COORD__LON": -5.699380, "COORD__LAT": 41.085560, "CODIGO_COL": 37009829 }, "geometry": { "type": "Point", "coordinates": [ -5.69938, 41.08556 ] } },
{ "type": "Feature", "properties": { "DENOMINA_2": "CRA RIBERA DEL DUERO", "PROVINCIA": "VALLADOLID", "MUNICIPIO": "QUINTANILLA DE ONESIMO", "COORD__LON": -4.355780, "COORD__LAT": 41.626380, "CODIGO_COL": 47007227 }, "geometry": { "type": "Point", "coordinates": [ -4.35578, 41.62638 ] } },
{ "type": "Feature", "properties": { "DENOMINA_2": "CRA RIBERA DEL PORMA", "PROVINCIA": "LEON", "MUNICIPIO": "VALDEFRESNO", "COORD__LON": -5.430240, "COORD__LAT": 42.583940, "CODIGO_COL": 24018465 }, "geometry": { "type": "Point", "coordinates": [ -5.43024, 42.58394 ] } },
{ "type": "Feature", "properties": { "DENOMINA_2": "CRA RIBERDUERO", "PROVINCIA": "BURGOS", "MUNICIPIO": "FUENTESPINA", "COORD__LON": -3.686190, "COORD__LAT": 41.631680, "CODIGO_COL": 9008755 }, "geometry": { "type": "Point", "coordinates": [ -3.68619, 41.63168 ] } },
{ "type": "Feature", "properties": { "DENOMINA_2": "CRA RIO AGUEDA", "PROVINCIA": "SALAMANCA", "MUNICIPIO": "VILLAR DE CIERVO", "COORD__LON": -6.739080, "COORD__LAT": 40.737580, "CODIGO_COL": 37009659 }, "geometry": { "type": "Point", "coordinates": [ -6.73908, 40.73758 ] } },
{ "type": "Feature", "properties": { "DENOMINA_2": "CRA RIO ERESMA", "PROVINCIA": "VALLADOLID", "MUNICIPIO": "MATAPOZUELOS", "COORD__LON": -4.789480, "COORD__LAT": 41.412540, "CODIGO_COL": 47007321 }, "geometry": { "type": "Point", "coordinates": [ -4.78948, 41.41254 ] } },
{ "type": "Feature", "properties": { "DENOMINA_2": "CRA RIO IZANA", "PROVINCIA": "SORIA", "MUNICIPIO": "QUINTANA REDONDA", "COORD__LON": -2.616230, "COORD__LAT": 41.638810, "CODIGO_COL": 42003797 }, "geometry": { "type": "Point", "coordinates": [ -2.61623, 41.63881 ] } },
{ "type": "Feature", "properties": { "DENOMINA_2": "CRA RIO YELTES", "PROVINCIA": "SALAMANCA", "MUNICIPIO": "VILLAVIEJA DE YELTES", "COORD__LON": -6.465040, "COORD__LAT": 40.875190, "CODIGO_COL": 37009672 }, "geometry": { "type": "Point", "coordinates": [ -6.46504, 40.87519 ] } },
{ "type": "Feature", "properties": { "DENOMINA_2": "CRA ROSA CHACEL", "PROVINCIA": "BURGOS", "MUNICIPIO": "VALLE DE VALDEBEZANA", "COORD__LON": -3.786470, "COORD__LAT": 42.969740, "CODIGO_COL": 9008718 }, "geometry": { "type": "Point", "coordinates": [ -3.78647, 42.96974 ] } },
{ "type": "Feature", "properties": { "DENOMINA_2": "CRA RUTA DE LA PLATA", "PROVINCIA": "SALAMANCA", "MUNICIPIO": "PUERTO DE BEJAR", "COORD__LON": -5.840220, "COORD__LAT": 40.350460, "CODIGO_COL": 37004984 }, "geometry": { "type": "Point", "coordinates": [ -5.84022, 40.35046 ] } },
{ "type": "Feature", "properties": { "DENOMINA_2": "CRA RUTA DE LA PLATA", "PROVINCIA": "LEON", "MUNICIPIO": "VILLAQUEJIDA", "COORD__LON": -5.597900, "COORD__LAT": 42.144470, "CODIGO_COL": 24018064 }, "geometry": { "type": "Point", "coordinates": [ -5.5979, 42.14447 ] } },
{ "type": "Feature", "properties": { "DENOMINA_2": "CRA SAN ISIDRO", "PROVINCIA": "SEGOVIA", "MUNICIPIO": "SANTIUSTE DE SAN JUAN BAUTISTA", "COORD__LON": -4.573840, "COORD__LAT": 41.157170, "CODIGO_COL": 40004993 }, "geometry": { "type": "Point", "coordinates": [ -4.57384, 41.15717 ] } },
{ "type": "Feature", "properties": { "DENOMINA_2": "CRA SAN PELAYO", "PROVINCIA": "ZAMORA", "MUNICIPIO": "MORALES DE REY", "COORD__LON": -5.792010, "COORD__LAT": 42.068300, "CODIGO_COL": 49007279 }, "geometry": { "type": "Point", "coordinates": [ -5.79201, 42.0683 ] } },
{ "type": "Feature", "properties": { "DENOMINA_2": "CRA SANTA ANA", "PROVINCIA": "LEON", "MUNICIPIO": "BENUZA", "COORD__LON": -6.673510, "COORD__LAT": 42.334870, "CODIGO_COL": 24018477 }, "geometry": { "type": "Point", "coordinates": [ -6.67351, 42.33487 ] } },
{ "type": "Feature", "properties": { "DENOMINA_2": "CRA SANTA BARBARA", "PROVINCIA": "LEON", "MUNICIPIO": "TORRE DEL BIERZO", "COORD__LON": -6.322240, "COORD__LAT": 42.595170, "CODIGO_COL": 24012025 }, "geometry": { "type": "Point", "coordinates": [ -6.32224, 42.59517 ] } },
{ "type": "Feature", "properties": { "DENOMINA_2": "CRA SANTA BARBARA", "PROVINCIA": "LEON", "MUNICIPIO": "SABERO", "COORD__LON": -5.180450, "COORD__LAT": 42.830040, "CODIGO_COL": 24018337 }, "geometry": { "type": "Point", "coordinates": [ -5.18045, 42.83004 ] } },
{ "type": "Feature", "properties": { "DENOMINA_2": "CRA SANTA TERESA", "PROVINCIA": "AVILA", "MUNICIPIO": "CRESPOS", "COORD__LON": -4.971160, "COORD__LAT": 40.869570, "CODIGO_COL": 5006077 }, "geometry": { "type": "Point", "coordinates": [ -4.97116, 40.86957 ] } },
{ "type": "Feature", "properties": { "DENOMINA_2": "CRA SIERRA DE PINARES", "PROVINCIA": "BURGOS", "MUNICIPIO": "VILVIESTRE DEL PINAR", "COORD__LON": -3.075640, "COORD__LAT": 41.951450, "CODIGO_COL": 9008779 }, "geometry": { "type": "Point", "coordinates": [ -3.07564, 41.95145 ] } },
{ "type": "Feature", "properties": { "DENOMINA_2": "CRA SIGLO XXI", "PROVINCIA": "BURGOS", "MUNICIPIO": "SOTILLO DE LA RIBERA", "COORD__LON": -3.826330, "COORD__LAT": 41.775820, "CODIGO_COL": 9008573 }, "geometry": { "type": "Point", "coordinates": [ -3.82633, 41.77582 ] } },
{ "type": "Feature", "properties": { "DENOMINA_2": "CRA TIERRA DE AREVALO", "PROVINCIA": "AVILA", "MUNICIPIO": "ALDEASECA", "COORD__LON": -4.816540, "COORD__LAT": 41.047400, "CODIGO_COL": 5006107 }, "geometry": { "type": "Point", "coordinates": [ -4.81654, 41.0474 ] } },
{ "type": "Feature", "properties": { "DENOMINA_2": "CRA TIERRA DEL PAN", "PROVINCIA": "ZAMORA", "MUNICIPIO": "MONTAMARTA", "COORD__LON": -5.811790, "COORD__LAT": 41.650080, "CODIGO_COL": 49007231 }, "geometry": { "type": "Point", "coordinates": [ -5.81179, 41.65008 ] } },
{ "type": "Feature", "properties": { "DENOMINA_2": "CRA TIERRAS ALTAS", "PROVINCIA": "SORIA", "MUNICIPIO": "SAN PEDRO MANRIQUE", "COORD__LON": -2.232450, "COORD__LAT": 42.030100, "CODIGO_COL": 42003785 }, "geometry": { "type": "Point", "coordinates": [ -2.23245, 42.0301 ] } },
{ "type": "Feature", "properties": { "DENOMINA_2": "CRA TIERRAS DE BERLANGA", "PROVINCIA": "SORIA", "MUNICIPIO": "BERLANGA DE DUERO", "COORD__LON": -2.862980, "COORD__LAT": 41.464760, "CODIGO_COL": 42003839 }, "geometry": { "type": "Point", "coordinates": [ -2.86298, 41.46476 ] } },
{ "type": "Feature", "properties": { "DENOMINA_2": "CRA TIERRAS DE MEDINA", "PROVINCIA": "VALLADOLID", "MUNICIPIO": "BOBADILLA DEL CAMPO", "COORD__LON": -5.020520, "COORD__LAT": 41.203500, "CODIGO_COL": 47006971 }, "geometry": { "type": "Point", "coordinates": [ -5.02052, 41.2035 ] } },
{ "type": "Feature", "properties": { "DENOMINA_2": "CRA TIERRAS DE SAYAGO", "PROVINCIA": "ZAMORA", "MUNICIPIO": "MUGA DE SAYAGO", "COORD__LON": -6.197400, "COORD__LAT": 41.385860, "CODIGO_COL": 49007206 }, "geometry": { "type": "Point", "coordinates": [ -6.1974, 41.38586 ] } },
{ "type": "Feature", "properties": { "DENOMINA_2": "CRA TOMAS LUIS DE VICTORIA", "PROVINCIA": "AVILA", "MUNICIPIO": "SANCHIDRIAN", "COORD__LON": -4.582840, "COORD__LAT": 40.891520, "CODIGO_COL": 5006089 }, "geometry": { "type": "Point", "coordinates": [ -4.58284, 40.89152 ] } },
{ "type": "Feature", "properties": { "DENOMINA_2": "CRA TRES RIOS", "PROVINCIA": "LEON", "MUNICIPIO": "CARRIZO", "COORD__LON": -5.824140, "COORD__LAT": 42.582680, "CODIGO_COL": 24018167 }, "geometry": { "type": "Point", "coordinates": [ -5.82414, 42.58268 ] } },
{ "type": "Feature", "properties": { "DENOMINA_2": "CRA TRES RIOS", "PROVINCIA": "ZAMORA", "MUNICIPIO": "SANTA CRISTINA DE LA POLVOROSA", "COORD__LON": -5.709800, "COORD__LAT": 41.999080, "CODIGO_COL": 49007218 }, "geometry": { "type": "Point", "coordinates": [ -5.7098, 41.99908 ] } },
{ "type": "Feature", "properties": { "DENOMINA_2": "CRA ULACA", "PROVINCIA": "AVILA", "MUNICIPIO": "SOLOSANCHO", "COORD__LON": -4.902950, "COORD__LAT": 40.548860, "CODIGO_COL": 5005899 }, "geometry": { "type": "Point", "coordinates": [ -4.90295, 40.54886 ] } },
{ "type": "Feature", "properties": { "DENOMINA_2": "CRA VALDELAVIA", "PROVINCIA": "AVILA", "MUNICIPIO": "NAVALPERAL DE PINARES", "COORD__LON": -4.410750, "COORD__LAT": 40.593230, "CODIGO_COL": 5006119 }, "geometry": { "type": "Point", "coordinates": [ -4.41075, 40.59323 ] } },
{ "type": "Feature", "properties": { "DENOMINA_2": "CRA VALLE AMBLES", "PROVINCIA": "AVILA", "MUNICIPIO": "MUNOGALINDO", "COORD__LON": -4.897840, "COORD__LAT": 40.602740, "CODIGO_COL": 5003571 }, "geometry": { "type": "Point", "coordinates": [ -4.89784, 40.60274 ] } },
{ "type": "Feature", "properties": { "DENOMINA_2": "CRA VALLE DE RIAZA", "PROVINCIA": "BURGOS", "MUNICIPIO": "MILAGROS", "COORD__LON": -3.696810, "COORD__LAT": 41.575580, "CODIGO_COL": 9008676 }, "geometry": { "type": "Point", "coordinates": [ -3.69681, 41.57558 ] } },
{ "type": "Feature", "properties": { "DENOMINA_2": "CRA VALLE DE VALVERDE", "PROVINCIA": "ZAMORA", "MUNICIPIO": "BURGANES DE VALVERDE", "COORD__LON": -5.776790, "COORD__LAT": 41.920770, "CODIGO_COL": 49007383 }, "geometry": { "type": "Point", "coordinates": [ -5.77679, 41.92077 ] } },
{ "type": "Feature", "properties": { "DENOMINA_2": "CRA VALLE DEL BOEZA", "PROVINCIA": "LEON", "MUNICIPIO": "TORRE DEL BIERZO", "COORD__LON": -6.390270, "COORD__LAT": 42.603860, "CODIGO_COL": 24018040 }, "geometry": { "type": "Point", "coordinates": [ -6.39027, 42.60386 ] } },
{ "type": "Feature", "properties": { "DENOMINA_2": "CRA VALLE DEL VALDUERNA", "PROVINCIA": "LEON", "MUNICIPIO": "DESTRIANA", "COORD__LON": -6.147820, "COORD__LAT": 42.273600, "CODIGO_COL": 24018003 }, "geometry": { "type": "Point", "coordinates": [ -6.14782, 42.2736 ] } },
{ "type": "Feature", "properties": { "DENOMINA_2": "CRA VALVANERA", "PROVINCIA": "SALAMANCA", "MUNICIPIO": "SANTIBANEZ DE BEJAR", "COORD__LON": -5.611120, "COORD__LAT": 40.486650, "CODIGO_COL": 37009593 }, "geometry": { "type": "Point", "coordinates": [ -5.61112, 40.48665 ] } },
{ "type": "Feature", "properties": { "DENOMINA_2": "CRA VEGA DEL ESLA", "PROVINCIA": "LEON", "MUNICIPIO": "TORAL DE LOS GUZMANES", "COORD__LON": -5.568280, "COORD__LAT": 42.242860, "CODIGO_COL": 24018027 }, "geometry": { "type": "Point", "coordinates": [ -5.56828, 42.24286 ] } },
{ "type": "Feature", "properties": { "DENOMINA_2": "CRA VEGACEMAR", "PROVINCIA": "LEON", "MUNICIPIO": "SAN JUSTO DE LA VEGA", "COORD__LON": -6.014720, "COORD__LAT": 42.453140, "CODIGO_COL": 24018441 }, "geometry": { "type": "Point", "coordinates": [ -6.01472, 42.45314 ] } },
{ "type": "Feature", "properties": { "DENOMINA_2": "CRA VETONIA", "PROVINCIA": "AVILA", "MUNICIPIO": "POYALES DEL HOYO", "COORD__LON": -5.165120, "COORD__LAT": 40.173540, "CODIGO_COL": 5005991 }, "geometry": { "type": "Point", "coordinates": [ -5.16512, 40.17354 ] } },
{ "type": "Feature", "properties": { "DENOMINA_2": "CRA VIA DE LA PLATA", "PROVINCIA": "ZAMORA", "MUNICIPIO": "SAN CRISTOBAL DE ENTREVINAS", "COORD__LON": -5.640660, "COORD__LAT": 42.041660, "CODIGO_COL": 49007371 }, "geometry": { "type": "Point", "coordinates": [ -5.64066, 42.04166 ] } },
{ "type": "Feature", "properties": { "DENOMINA_2": "CRA VILLAS DEL SEQUILLO", "PROVINCIA": "VALLADOLID", "MUNICIPIO": "VILLABRAGIMA", "COORD__LON": -5.112990, "COORD__LAT": 41.819810, "CODIGO_COL": 47007173 }, "geometry": { "type": "Point", "coordinates": [ -5.11299, 41.81981 ] } },
{ "type": "Feature", "properties": { "DENOMINA_2": "CRISTOBAL COLON", "PROVINCIA": "VALLADOLID", "MUNICIPIO": "VALLADOLID", "COORD__LON": -4.709460, "COORD__LAT": 41.647220, "CODIGO_COL": 47003210 }, "geometry": { "type": "Point", "coordinates": [ -4.70946, 41.64722 ] } },
{ "type": "Feature", "properties": { "DENOMINA_2": "DE VALLES", "PROVINCIA": "LEON", "MUNICIPIO": "BONAR", "COORD__LON": -5.319440, "COORD__LAT": 42.864300, "CODIGO_COL": 24001490 }, "geometry": { "type": "Point", "coordinates": [ -5.31944, 42.8643 ] } },
{ "type": "Feature", "properties": { "DENOMINA_2": "DIEGO DE COLMENARES", "PROVINCIA": "SEGOVIA", "MUNICIPIO": "SEGOVIA", "COORD__LON": -4.117200, "COORD__LAT": 40.940960, "CODIGO_COL": 40003356 }, "geometry": { "type": "Point", "coordinates": [ -4.1172, 40.94096 ] } },
{ "type": "Feature", "properties": { "DENOMINA_2": "DIEGO LAINEZ", "PROVINCIA": "SORIA", "MUNICIPIO": "ALMAZAN", "COORD__LON": -2.534320, "COORD__LAT": 41.486030, "CODIGO_COL": 42000280 }, "geometry": { "type": "Point", "coordinates": [ -2.53432, 41.48603 ] } },
{ "type": "Feature", "properties": { "DENOMINA_2": "D.JOSE GALERA MORENO", "PROVINCIA": "ZAMORA", "MUNICIPIO": "ZAMORA", "COORD__LON": -5.736140, "COORD__LAT": 41.507680, "CODIGO_COL": 49006585 }, "geometry": { "type": "Point", "coordinates": [ -5.73614, 41.50768 ] } },
{ "type": "Feature", "properties": { "DENOMINA_2": "DOMINGO DE SOTO", "PROVINCIA": "SEGOVIA", "MUNICIPIO": "SEGOVIA", "COORD__LON": -4.120960, "COORD__LAT": 40.950150, "CODIGO_COL": 40003307 }, "geometry": { "type": "Point", "coordinates": [ -4.12096, 40.95015 ] } },
{ "type": "Feature", "properties": { "DENOMINA_2": "DOMINGO VIEJO", "PROVINCIA": "BURGOS", "MUNICIPIO": "MELGAR DE FERNAMENTAL", "COORD__LON": -4.249860, "COORD__LAT": 42.401910, "CODIGO_COL": 9003630 }, "geometry": { "type": "Point", "coordinates": [ -4.24986, 42.40191 ] } },
{ "type": "Feature", "properties": { "DENOMINA_2": "DONA CONCEPCION ARENAL", "PROVINCIA": "AVILA", "MUNICIPIO": "CASAVIEJA", "COORD__LON": -4.766000, "COORD__LAT": 40.281140, "CODIGO_COL": 5001493 }, "geometry": { "type": "Point", "coordinates": [ -4.766, 40.28114 ] } },
{ "type": "Feature", "properties": { "DENOMINA_2": "DONA MENCIA DE VELASCO", "PROVINCIA": "BURGOS", "MUNICIPIO": "BRIVIESCA", "COORD__LON": -3.320070, "COORD__LAT": 42.543550, "CODIGO_COL": 9008068 }, "geometry": { "type": "Point", "coordinates": [ -3.32007, 42.54355 ] } },
{ "type": "Feature", "properties": { "DENOMINA_2": "EL ABROJO", "PROVINCIA": "VALLADOLID", "MUNICIPIO": "LAGUNA DE DUERO", "COORD__LON": -4.714640, "COORD__LAT": 41.577310, "CODIGO_COL": 47011474 }, "geometry": { "type": "Point", "coordinates": [ -4.71464, 41.57731 ] } },
{ "type": "Feature", "properties": { "DENOMINA_2": "EL MUNDO", "PROVINCIA": "PALENCIA", "MUNICIPIO": "POZA DE LA VEGA", "COORD__LON": -4.797760, "COORD__LAT": 42.577730, "CODIGO_COL": 34002095 }, "geometry": { "type": "Point", "coordinates": [ -4.79776, 42.57773 ] } },
{ "type": "Feature", "properties": { "DENOMINA_2": "EL OTERO", "PROVINCIA": "PALENCIA", "MUNICIPIO": "GUARDO", "COORD__LON": -4.842950, "COORD__LAT": 42.788760, "CODIGO_COL": 34000992 }, "geometry": { "type": "Point", "coordinates": [ -4.84295, 42.78876 ] } },
{ "type": "Feature", "properties": { "DENOMINA_2": "EL PENASCAL", "PROVINCIA": "SEGOVIA", "MUNICIPIO": "SEGOVIA", "COORD__LON": -4.106330, "COORD__LAT": 40.943930, "CODIGO_COL": 40003290 }, "geometry": { "type": "Point", "coordinates": [ -4.10633, 40.94393 ] } },
{ "type": "Feature", "properties": { "DENOMINA_2": "EL PERAL", "PROVINCIA": "VALLADOLID", "MUNICIPIO": "VALLADOLID", "COORD__LON": -4.755160, "COORD__LAT": 41.615960, "CODIGO_COL": 47011401 }, "geometry": { "type": "Point", "coordinates": [ -4.75516, 41.61596 ] } },
{ "type": "Feature", "properties": { "DENOMINA_2": "EL PINAR", "PROVINCIA": "ZAMORA", "MUNICIPIO": "BENAVENTE", "COORD__LON": -5.673110, "COORD__LAT": 42.006530, "CODIGO_COL": 49007620 }, "geometry": { "type": "Point", "coordinates": [ -5.67311, 42.00653 ] } },
{ "type": "Feature", "properties": { "DENOMINA_2": "EL PRADILLO", "PROVINCIA": "AVILA", "MUNICIPIO": "AVILA", "COORD__LON": -4.692550, "COORD__LAT": 40.664290, "CODIGO_COL": 5005383 }, "geometry": { "type": "Point", "coordinates": [ -4.69255, 40.66429 ] } },
{ "type": "Feature", "properties": { "DENOMINA_2": "EL PRADO", "PROVINCIA": "VALLADOLID", "MUNICIPIO": "MEGECES", "COORD__LON": -4.568540, "COORD__LAT": 41.407960, "CODIGO_COL": 47001511 }, "geometry": { "type": "Point", "coordinates": [ -4.56854, 41.40796 ] } },
{ "type": "Feature", "properties": { "DENOMINA_2": "EL PRADO", "PROVINCIA": "VALLADOLID", "MUNICIPIO": "VALDESTILLAS", "COORD__LON": -4.772520, "COORD__LAT": 41.479060, "CODIGO_COL": 47003052 }, "geometry": { "type": "Point", "coordinates": [ -4.77252, 41.47906 ] } },
{ "type": "Feature", "properties": { "DENOMINA_2": "EL TERA", "PROVINCIA": "ZAMORA", "MUNICIPIO": "CAMARZANA DE TERA", "COORD__LON": -6.032860, "COORD__LAT": 41.993670, "CODIGO_COL": 49000571 }, "geometry": { "type": "Point", "coordinates": [ -6.03286, 41.99367 ] } },
{ "type": "Feature", "properties": { "DENOMINA_2": "EL ZAIRE", "PROVINCIA": "AVILA", "MUNICIPIO": "BURGOHONDO", "COORD__LON": -4.789330, "COORD__LAT": 40.415200, "CODIGO_COL": 5001237 }, "geometry": { "type": "Point", "coordinates": [ -4.78933, 40.4152 ] } },
{ "type": "Feature", "properties": { "DENOMINA_2": "ELENA FORTUN", "PROVINCIA": "SEGOVIA", "MUNICIPIO": "SEGOVIA", "COORD__LON": -4.092070, "COORD__LAT": 40.929720, "CODIGO_COL": 40005262 }, "geometry": { "type": "Point", "coordinates": [ -4.09207, 40.92972 ] } },
{ "type": "Feature", "properties": { "DENOMINA_2": "ELVIRA LINDO GARRIDO", "PROVINCIA": "VALLADOLID", "MUNICIPIO": "ARROYO DE LA ENCOMIENDA", "COORD__LON": -4.771800, "COORD__LAT": 41.626980, "CODIGO_COL": 47011413 }, "geometry": { "type": "Point", "coordinates": [ -4.7718, 41.62698 ] } },
{ "type": "Feature", "properties": { "DENOMINA_2": "EMILIA MENENDEZ", "PROVINCIA": "LEON", "MUNICIPIO": "ROBLA (LA)", "COORD__LON": -5.632040, "COORD__LAT": 42.805100, "CODIGO_COL": 24009609 }, "geometry": { "type": "Point", "coordinates": [ -5.63204, 42.8051 ] } },
{ "type": "Feature", "properties": { "DENOMINA_2": "ENTREVALLES", "PROVINCIA": "ZAMORA", "MUNICIPIO": "SAN PEDRO DE CEQUE", "COORD__LON": -6.076000, "COORD__LAT": 42.043520, "CODIGO_COL": 49003961 }, "geometry": { "type": "Point", "coordinates": [ -6.076, 42.04352 ] } },
{ "type": "Feature", "properties": { "DENOMINA_2": "ERESMA", "PROVINCIA": "SEGOVIA", "MUNICIPIO": "SEGOVIA", "COORD__LON": -4.100110, "COORD__LAT": 40.943550, "CODIGO_COL": 40004464 }, "geometry": { "type": "Point", "coordinates": [ -4.10011, 40.94355 ] } },
{ "type": "Feature", "properties": { "DENOMINA_2": "EUROPA", "PROVINCIA": "VALLADOLID", "MUNICIPIO": "PEDRAJA DE PORTILLO (LA)", "COORD__LON": -4.649600, "COORD__LAT": 41.471450, "CODIGO_COL": 47001869 }, "geometry": { "type": "Point", "coordinates": [ -4.6496, 41.47145 ] } },
{ "type": "Feature", "properties": { "DENOMINA_2": "FEDERICO GARCIA LORCA", "PROVINCIA": "LEON", "MUNICIPIO": "POLA DE GORDON (LA)", "COORD__LON": -5.675610, "COORD__LAT": 42.855970, "CODIGO_COL": 24007820 }, "geometry": { "type": "Point", "coordinates": [ -5.67561, 42.85597 ] } },
{ "type": "Feature", "properties": { "DENOMINA_2": "FEDERICO GARCIA LORCA", "PROVINCIA": "VALLADOLID", "MUNICIPIO": "VALLADOLID", "COORD__LON": -4.712130, "COORD__LAT": 41.656200, "CODIGO_COL": 47006065 }, "geometry": { "type": "Point", "coordinates": [ -4.71213, 41.6562 ] } },
{ "type": "Feature", "properties": { "DENOMINA_2": "FELIX CUADRADO LOMAS", "PROVINCIA": "VALLADOLID", "MUNICIPIO": "CISTERNIGA", "COORD__LON": -4.682960, "COORD__LAT": 41.611500, "CODIGO_COL": 47000774 }, "geometry": { "type": "Point", "coordinates": [ -4.68296, 41.6115 ] } },
{ "type": "Feature", "properties": { "DENOMINA_2": "FELIX RODRIGUEZ DE LA FUENTE", "PROVINCIA": "SALAMANCA", "MUNICIPIO": "SALAMANCA", "COORD__LON": -5.654010, "COORD__LAT": 40.980710, "CODIGO_COL": 37006038 }, "geometry": { "type": "Point", "coordinates": [ -5.65401, 40.98071 ] } },
{ "type": "Feature", "properties": { "DENOMINA_2": "FERNAN GONZALEZ", "PROVINCIA": "BURGOS", "MUNICIPIO": "ARANDA DE DUERO", "COORD__LON": -3.689740, "COORD__LAT": 41.665670, "CODIGO_COL": 9000161 }, "geometry": { "type": "Point", "coordinates": [ -3.68974, 41.66567 ] } },
{ "type": "Feature", "properties": { "DENOMINA_2": "FERNAN GONZALEZ", "PROVINCIA": "BURGOS", "MUNICIPIO": "SALAS DE LOS INFANTES", "COORD__LON": -3.285740, "COORD__LAT": 42.022520, "CODIGO_COL": 9005420 }, "geometry": { "type": "Point", "coordinates": [ -3.28574, 42.02252 ] } },
{ "type": "Feature", "properties": { "DENOMINA_2": "FERNANDO DE ROJAS", "PROVINCIA": "BURGOS", "MUNICIPIO": "BURGOS", "COORD__LON": -3.665670, "COORD__LAT": 42.348520, "CODIGO_COL": 9008822 }, "geometry": { "type": "Point", "coordinates": [ -3.66567, 42.34852 ] } },
{ "type": "Feature", "properties": { "DENOMINA_2": "FERNANDO II", "PROVINCIA": "ZAMORA", "MUNICIPIO": "BENAVENTE", "COORD__LON": -5.679350, "COORD__LAT": 41.996980, "CODIGO_COL": 49006263 }, "geometry": { "type": "Point", "coordinates": [ -5.67935, 41.99698 ] } },
{ "type": "Feature", "properties": { "DENOMINA_2": "FILIBERTO VILLALOBOS", "PROVINCIA": "SALAMANCA", "MUNICIPIO": "GUIJUELO", "COORD__LON": -5.670940, "COORD__LAT": 40.555740, "CODIGO_COL": 37003128 }, "geometry": { "type": "Point", "coordinates": [ -5.67094, 40.55574 ] } },
{ "type": "Feature", "properties": { "DENOMINA_2": "FILIBERTO VILLALOBOS", "PROVINCIA": "SALAMANCA", "MUNICIPIO": "SALAMANCA", "COORD__LON": -5.651900, "COORD__LAT": 40.976410, "CODIGO_COL": 37005241 }, "geometry": { "type": "Point", "coordinates": [ -5.6519, 40.97641 ] } },
{ "type": "Feature", "properties": { "DENOMINA_2": "FILIBERTO VILLALOBOS", "PROVINCIA": "SALAMANCA", "MUNICIPIO": "BEJAR", "COORD__LON": -5.767090, "COORD__LAT": 40.385140, "CODIGO_COL": 37000917 }, "geometry": { "type": "Point", "coordinates": [ -5.76709, 40.38514 ] } },
{ "type": "Feature", "properties": { "DENOMINA_2": "FILIBERTO VILLALOBOS", "PROVINCIA": "SALAMANCA", "MUNICIPIO": "BABILAFUENTE", "COORD__LON": -5.424780, "COORD__LAT": 40.977890, "CODIGO_COL": 37000796 }, "geometry": { "type": "Point", "coordinates": [ -5.42478, 40.97789 ] } },
{ "type": "Feature", "properties": { "DENOMINA_2": "FRANCISCO ARGOS", "PROVINCIA": "PALENCIA", "MUNICIPIO": "VENTA DE BANOS", "COORD__LON": -4.499050, "COORD__LAT": 41.920820, "CODIGO_COL": 34000244 }, "geometry": { "type": "Point", "coordinates": [ -4.49905, 41.92082 ] } },
{ "type": "Feature", "properties": { "DENOMINA_2": "FRANCISCO DE QUEVEDO Y VILLEGAS", "PROVINCIA": "VALLADOLID", "MUNICIPIO": "VALLADOLID", "COORD__LON": -4.741730, "COORD__LAT": 41.633990, "CODIGO_COL": 47003453 }, "geometry": { "type": "Point", "coordinates": [ -4.74173, 41.63399 ] } },
{ "type": "Feature", "properties": { "DENOMINA_2": "FRANCISCO DE VITORIA", "PROVINCIA": "SALAMANCA", "MUNICIPIO": "SALAMANCA", "COORD__LON": -5.661980, "COORD__LAT": 40.968880, "CODIGO_COL": 37005253 }, "geometry": { "type": "Point", "coordinates": [ -5.66198, 40.96888 ] } },
{ "type": "Feature", "properties": { "DENOMINA_2": "FRANCISCO DE VITORIA", "PROVINCIA": "BURGOS", "MUNICIPIO": "BURGOS", "COORD__LON": -3.690200, "COORD__LAT": 42.353200, "CODIGO_COL": 9000914 }, "geometry": { "type": "Point", "coordinates": [ -3.6902, 42.3532 ] } },
{ "type": "Feature", "properties": { "DENOMINA_2": "FRANCISCO GINER DE LOS RIOS", "PROVINCIA": "VALLADOLID", "MUNICIPIO": "VALLADOLID", "COORD__LON": -4.743650, "COORD__LAT": 41.651730, "CODIGO_COL": 47006429 }, "geometry": { "type": "Point", "coordinates": [ -4.74365, 41.65173 ] } },
{ "type": "Feature", "properties": { "DENOMINA_2": "FRANCISCO PINO", "PROVINCIA": "VALLADOLID", "MUNICIPIO": "VALLADOLID", "COORD__LON": -4.764680, "COORD__LAT": 41.638470, "CODIGO_COL": 47010937 }, "geometry": { "type": "Point", "coordinates": [ -4.76468, 41.63847 ] } },
{ "type": "Feature", "properties": { "DENOMINA_2": "FRAY BERNARDINO SAHAGUN", "PROVINCIA": "LEON", "MUNICIPIO": "SAHAGUN", "COORD__LON": -5.029630, "COORD__LAT": 42.369460, "CODIGO_COL": 24009890 }, "geometry": { "type": "Point", "coordinates": [ -5.02963, 42.36946 ] } },
{ "type": "Feature", "properties": { "DENOMINA_2": "FRAY ENRIQUE FLOREZ", "PROVINCIA": "BURGOS", "MUNICIPIO": "VILLADIEGO", "COORD__LON": -4.003570, "COORD__LAT": 42.517900, "CODIGO_COL": 9006761 }, "geometry": { "type": "Point", "coordinates": [ -4.00357, 42.5179 ] } },
{ "type": "Feature", "properties": { "DENOMINA_2": "FRAY JUAN DE LA CRUZ", "PROVINCIA": "SEGOVIA", "MUNICIPIO": "SEGOVIA", "COORD__LON": -4.118510, "COORD__LAT": 40.951010, "CODIGO_COL": 40003344 }, "geometry": { "type": "Point", "coordinates": [ -4.11851, 40.95101 ] } },
{ "type": "Feature", "properties": { "DENOMINA_2": "FRAY LUIS DE GRANADA", "PROVINCIA": "ZAMORA", "MUNICIPIO": "PUEBLA DE SANABRIA", "COORD__LON": -6.627090, "COORD__LAT": 42.056750, "CODIGO_COL": 49003390 }, "geometry": { "type": "Point", "coordinates": [ -6.62709, 42.05675 ] } },
{ "type": "Feature", "properties": { "DENOMINA_2": "FRAY LUIS DE LEON", "PROVINCIA": "VALLADOLID", "MUNICIPIO": "VALLADOLID", "COORD__LON": -4.717260, "COORD__LAT": 41.640170, "CODIGO_COL": 47003234 }, "geometry": { "type": "Point", "coordinates": [ -4.71726, 41.64017 ] } },
{ "type": "Feature", "properties": { "DENOMINA_2": "FUENTE DEL REY", "PROVINCIA": "SORIA", "MUNICIPIO": "SORIA", "COORD__LON": -2.468210, "COORD__LAT": 41.771330, "CODIGO_COL": 42003414 }, "geometry": { "type": "Point", "coordinates": [ -2.46821, 41.77133 ] } },
{ "type": "Feature", "properties": { "DENOMINA_2": "FUENTECILLAS", "PROVINCIA": "BURGOS", "MUNICIPIO": "BURGOS", "COORD__LON": -3.717050, "COORD__LAT": 42.342480, "CODIGO_COL": 9012412 }, "geometry": { "type": "Point", "coordinates": [ -3.71705, 42.34248 ] } },
{ "type": "Feature", "properties": { "DENOMINA_2": "FUENTES BLANCAS", "PROVINCIA": "BURGOS", "MUNICIPIO": "BURGOS", "COORD__LON": -3.635130, "COORD__LAT": 42.338440, "CODIGO_COL": 9001086 }, "geometry": { "type": "Point", "coordinates": [ -3.63513, 42.33844 ] } },
{ "type": "Feature", "properties": { "DENOMINA_2": "GABRIEL Y GALAN", "PROVINCIA": "SALAMANCA", "MUNICIPIO": "VILLORIA", "COORD__LON": -5.653540, "COORD__LAT": 40.974520, "CODIGO_COL": 37007675 }, "geometry": { "type": "Point", "coordinates": [ -5.65354, 40.97452 ] } },
{ "type": "Feature", "properties": { "DENOMINA_2": "GABRIEL Y GALAN", "PROVINCIA": "VALLADOLID", "MUNICIPIO": "VALLADOLID", "COORD__LON": -4.711350, "COORD__LAT": 41.653040, "CODIGO_COL": 47003246 }, "geometry": { "type": "Point", "coordinates": [ -4.71135, 41.65304 ] } },
{ "type": "Feature", "properties": { "DENOMINA_2": "GABRIEL Y GALAN", "PROVINCIA": "SALAMANCA", "MUNICIPIO": "FUENTERROBLE DE SALVATIERRA", "COORD__LON": -5.736490, "COORD__LAT": 40.562370, "CODIGO_COL": 37002823 }, "geometry": { "type": "Point", "coordinates": [ -5.73649, 40.56237 ] } },
{ "type": "Feature", "properties": { "DENOMINA_2": "GABRIELA MISTRAL", "PROVINCIA": "ZAMORA", "MUNICIPIO": "FUENTELAPENA", "COORD__LON": -5.393490, "COORD__LAT": 41.250230, "CODIGO_COL": 49001514 }, "geometry": { "type": "Point", "coordinates": [ -5.39349, 41.25023 ] } },
{ "type": "Feature", "properties": { "DENOMINA_2": "GENERACION DEL 27", "PROVINCIA": "LEON", "MUNICIPIO": "VILLABLINO", "COORD__LON": -6.316220, "COORD__LAT": 42.937280, "CODIGO_COL": 24014101 }, "geometry": { "type": "Point", "coordinates": [ -6.31622, 42.93728 ] } },
{ "type": "Feature", "properties": { "DENOMINA_2": "GERARDO DIEGO", "PROVINCIA": "SORIA", "MUNICIPIO": "GOLMAYO", "COORD__LON": -2.502480, "COORD__LAT": 41.774110, "CODIGO_COL": 42007201 }, "geometry": { "type": "Point", "coordinates": [ -2.50248, 41.77411 ] } },
{ "type": "Feature", "properties": { "DENOMINA_2": "GLICERIO MARTIN", "PROVINCIA": "PALENCIA", "MUNICIPIO": "VILLAVIUDAS", "COORD__LON": -4.343140, "COORD__LAT": 41.961680, "CODIGO_COL": 34002897 }, "geometry": { "type": "Point", "coordinates": [ -4.34314, 41.96168 ] } },
{ "type": "Feature", "properties": { "DENOMINA_2": "GLORIA FUERTES", "PROVINCIA": "VALLADOLID", "MUNICIPIO": "TUDELA DE DUERO", "COORD__LON": -4.584610, "COORD__LAT": 41.588470, "CODIGO_COL": 47010949 }, "geometry": { "type": "Point", "coordinates": [ -4.58461, 41.58847 ] } },
{ "type": "Feature", "properties": { "DENOMINA_2": "GLORIA FUERTES", "PROVINCIA": "BURGOS", "MUNICIPIO": "VILLALBILLA DE BURGOS", "COORD__LON": -3.778640, "COORD__LAT": 42.347250, "CODIGO_COL": 9012281 }, "geometry": { "type": "Point", "coordinates": [ -3.77864, 42.34725 ] } },
{ "type": "Feature", "properties": { "DENOMINA_2": "GOMEZ MANRIQUE", "PROVINCIA": "PALENCIA", "MUNICIPIO": "VILLAMURIEL DE CERRATO", "COORD__LON": -4.507760, "COORD__LAT": 41.947120, "CODIGO_COL": 34003348 }, "geometry": { "type": "Point", "coordinates": [ -4.50776, 41.94712 ] } },
{ "type": "Feature", "properties": { "DENOMINA_2": "GONZALO DE BERCEO", "PROVINCIA": "ZAMORA", "MUNICIPIO": "ZAMORA", "COORD__LON": -5.750400, "COORD__LAT": 41.502150, "CODIGO_COL": 49006068 }, "geometry": { "type": "Point", "coordinates": [ -5.7504, 41.50215 ] } },
{ "type": "Feature", "properties": { "DENOMINA_2": "GONZALO DE BERCEO", "PROVINCIA": "VALLADOLID", "MUNICIPIO": "VALLADOLID", "COORD__LON": -4.723690, "COORD__LAT": 41.663660, "CODIGO_COL": 47006454 }, "geometry": { "type": "Point", "coordinates": [ -4.72369, 41.66366 ] } },
{ "type": "Feature", "properties": { "DENOMINA_2": "GONZALO DE CORDOBA", "PROVINCIA": "VALLADOLID", "MUNICIPIO": "VALLADOLID", "COORD__LON": -4.732680, "COORD__LAT": 41.663030, "CODIGO_COL": 47003261 }, "geometry": { "type": "Point", "coordinates": [ -4.73268, 41.66303 ] } },
{ "type": "Feature", "properties": { "DENOMINA_2": "GRAN CAPITAN", "PROVINCIA": "SALAMANCA", "MUNICIPIO": "SALAMANCA", "COORD__LON": -5.667390, "COORD__LAT": 40.977690, "CODIGO_COL": 37006026 }, "geometry": { "type": "Point", "coordinates": [ -5.66739, 40.97769 ] } },
{ "type": "Feature", "properties": { "DENOMINA_2": "GRAN DUQUE DE ALBA", "PROVINCIA": "AVILA", "MUNICIPIO": "PIEDRAHITA", "COORD__LON": -5.325940, "COORD__LAT": 40.461610, "CODIGO_COL": 5003751 }, "geometry": { "type": "Point", "coordinates": [ -5.32594, 40.46161 ] } },
{ "type": "Feature", "properties": { "DENOMINA_2": "GUMERSINDO AZCARATE", "PROVINCIA": "LEON", "MUNICIPIO": "LEON", "COORD__LON": -5.588850, "COORD__LAT": 42.590010, "CODIGO_COL": 24016894 }, "geometry": { "type": "Point", "coordinates": [ -5.58885, 42.59001 ] } },
{ "type": "Feature", "properties": { "DENOMINA_2": "HEROES DE LA INDEPENDENCIA", "PROVINCIA": "PALENCIA", "MUNICIPIO": "TORQUEMADA", "COORD__LON": -4.319730, "COORD__LAT": 42.031650, "CODIGO_COL": 34002563 }, "geometry": { "type": "Point", "coordinates": [ -4.31973, 42.03165 ] } },
{ "type": "Feature", "properties": { "DENOMINA_2": "HOSPITAL DE LA CRUZ", "PROVINCIA": "ZAMORA", "MUNICIPIO": "TORO", "COORD__LON": -5.389160, "COORD__LAT": 41.521980, "CODIGO_COL": 49006214 }, "geometry": { "type": "Point", "coordinates": [ -5.38916, 41.52198 ] } },
{ "type": "Feature", "properties": { "DENOMINA_2": "IGNACIO MARTIN BARO", "PROVINCIA": "VALLADOLID", "MUNICIPIO": "VALLADOLID", "COORD__LON": -4.755400, "COORD__LAT": 41.639430, "CODIGO_COL": 47007033 }, "geometry": { "type": "Point", "coordinates": [ -4.7554, 41.63943 ] } },
{ "type": "Feature", "properties": { "DENOMINA_2": "IGNACIO SARDA", "PROVINCIA": "ZAMORA", "MUNICIPIO": "CARBAJALES DE ALBA", "COORD__LON": -5.994240, "COORD__LAT": 41.650930, "CODIGO_COL": 49000625 }, "geometry": { "type": "Point", "coordinates": [ -5.99424, 41.65093 ] } },
{ "type": "Feature", "properties": { "DENOMINA_2": "INFANTES DE LARA", "PROVINCIA": "SORIA", "MUNICIPIO": "SORIA", "COORD__LON": -2.471370, "COORD__LAT": 41.759720, "CODIGO_COL": 42003451 }, "geometry": { "type": "Point", "coordinates": [ -2.47137, 41.75972 ] } },
{ "type": "Feature", "properties": { "DENOMINA_2": "ISABEL DE CASTILLA", "PROVINCIA": "VALLADOLID", "MUNICIPIO": "SERRADA", "COORD__LON": -4.862940, "COORD__LAT": 41.453490, "CODIGO_COL": 47002588 }, "geometry": { "type": "Point", "coordinates": [ -4.86294, 41.45349 ] } },
{ "type": "Feature", "properties": { "DENOMINA_2": "ISABEL LA CATOLICA", "PROVINCIA": "VALLADOLID", "MUNICIPIO": "VALLADOLID", "COORD__LON": -4.730390, "COORD__LAT": 41.658790, "CODIGO_COL": 47003295 }, "geometry": { "type": "Point", "coordinates": [ -4.73039, 41.65879 ] } },
{ "type": "Feature", "properties": { "DENOMINA_2": "JACINTO BENAVENTE", "PROVINCIA": "ZAMORA", "MUNICIPIO": "ZAMORA", "COORD__LON": -5.745760, "COORD__LAT": 41.500700, "CODIGO_COL": 49005477 }, "geometry": { "type": "Point", "coordinates": [ -5.74576, 41.5007 ] } },
{ "type": "Feature", "properties": { "DENOMINA_2": "JAVIER", "PROVINCIA": "LEON", "MUNICIPIO": "LEON", "COORD__LON": -5.558470, "COORD__LAT": 42.581990, "CODIGO_COL": 24005641 }, "geometry": { "type": "Point", "coordinates": [ -5.55847, 42.58199 ] } },
{ "type": "Feature", "properties": { "DENOMINA_2": "JESUS MAESTRO", "PROVINCIA": "LEON", "MUNICIPIO": "PONFERRADA", "COORD__LON": -6.626220, "COORD__LAT": 42.559900, "CODIGO_COL": 24008010 }, "geometry": { "type": "Point", "coordinates": [ -6.62622, 42.5599 ] } },
{ "type": "Feature", "properties": { "DENOMINA_2": "JOAQUIN DIAZ", "PROVINCIA": "VALLADOLID", "MUNICIPIO": "CISTERNIGA", "COORD__LON": -4.686080, "COORD__LAT": 41.607820, "CODIGO_COL": 47011176 }, "geometry": { "type": "Point", "coordinates": [ -4.68608, 41.60782 ] } },
{ "type": "Feature", "properties": { "DENOMINA_2": "JORGE GUILLEN", "PROVINCIA": "VALLADOLID", "MUNICIPIO": "CAMPASPERO", "COORD__LON": -4.198920, "COORD__LAT": 41.491450, "CODIGO_COL": 47000336 }, "geometry": { "type": "Point", "coordinates": [ -4.19892, 41.49145 ] } },
{ "type": "Feature", "properties": { "DENOMINA_2": "JORGE GUILLEN", "PROVINCIA": "VALLADOLID", "MUNICIPIO": "VALLADOLID", "COORD__LON": -4.748990, "COORD__LAT": 41.629430, "CODIGO_COL": 47005899 }, "geometry": { "type": "Point", "coordinates": [ -4.74899, 41.62943 ] } },
{ "type": "Feature", "properties": { "DENOMINA_2": "JORGE MANRIQUE", "PROVINCIA": "PALENCIA", "MUNICIPIO": "PALENCIA", "COORD__LON": -4.533680, "COORD__LAT": 42.008310, "CODIGO_COL": 34001431 }, "geometry": { "type": "Point", "coordinates": [ -4.53368, 42.00831 ] } },
{ "type": "Feature", "properties": { "DENOMINA_2": "JOSE HERRERO", "PROVINCIA": "SALAMANCA", "MUNICIPIO": "SALAMANCA", "COORD__LON": -5.651790, "COORD__LAT": 40.980220, "CODIGO_COL": 37006041 }, "geometry": { "type": "Point", "coordinates": [ -5.65179, 40.98022 ] } },
{ "type": "Feature", "properties": { "DENOMINA_2": "JOSE MARIA GUTIERREZ DEL CASTILLO", "PROVINCIA": "VALLADOLID", "MUNICIPIO": "VALLADOLID", "COORD__LON": -4.721630, "COORD__LAT": 41.664050, "CODIGO_COL": 47003532 }, "geometry": { "type": "Point", "coordinates": [ -4.72163, 41.66405 ] } },
{ "type": "Feature", "properties": { "DENOMINA_2": "JOSE ZORRILLA", "PROVINCIA": "VALLADOLID", "MUNICIPIO": "VALLADOLID", "COORD__LON": -4.716830, "COORD__LAT": 41.663330, "CODIGO_COL": 47003325 }, "geometry": { "type": "Point", "coordinates": [ -4.71683, 41.66333 ] } },
{ "type": "Feature", "properties": { "DENOMINA_2": "JUAN ABASCAL", "PROVINCIA": "BURGOS", "MUNICIPIO": "BRIVIESCA", "COORD__LON": -3.320930, "COORD__LAT": 42.550550, "CODIGO_COL": 9000835 }, "geometry": { "type": "Point", "coordinates": [ -3.32093, 42.55055 ] } },
{ "type": "Feature", "properties": { "DENOMINA_2": "JUAN ARRABAL", "PROVINCIA": "AVILA", "MUNICIPIO": "BARCO DE AVILA (EL)", "COORD__LON": -5.521570, "COORD__LAT": 40.357010, "CODIGO_COL": 5000816 }, "geometry": { "type": "Point", "coordinates": [ -5.52157, 40.35701 ] } },
{ "type": "Feature", "properties": { "DENOMINA_2": "JUAN DE RODRIGO", "PROVINCIA": "VALLADOLID", "MUNICIPIO": "COGECES DEL MONTE", "COORD__LON": -4.316880, "COORD__LAT": 41.510430, "CODIGO_COL": 47000804 }, "geometry": { "type": "Point", "coordinates": [ -4.31688, 41.51043 ] } },
{ "type": "Feature", "properties": { "DENOMINA_2": "JUAN DE VALLEJO", "PROVINCIA": "BURGOS", "MUNICIPIO": "BURGOS", "COORD__LON": -3.671230, "COORD__LAT": 42.354700, "CODIGO_COL": 9007635 }, "geometry": { "type": "Point", "coordinates": [ -3.67123, 42.3547 ] } },
{ "type": "Feature", "properties": { "DENOMINA_2": "JUAN DE YEPES", "PROVINCIA": "AVILA", "MUNICIPIO": "AVILA", "COORD__LON": -4.702350, "COORD__LAT": 40.648820, "CODIGO_COL": 5005632 }, "geometry": { "type": "Point", "coordinates": [ -4.70235, 40.64882 ] } },
{ "type": "Feature", "properties": { "DENOMINA_2": "JUAN DEL ENZINA", "PROVINCIA": "SALAMANCA", "MUNICIPIO": "SALAMANCA", "COORD__LON": -5.662860, "COORD__LAT": 40.949240, "CODIGO_COL": 37005228 }, "geometry": { "type": "Point", "coordinates": [ -5.66286, 40.94924 ] } },
{ "type": "Feature", "properties": { "DENOMINA_2": "JUAN JAEN", "PROVINCIA": "SALAMANCA", "MUNICIPIO": "SALAMANCA", "COORD__LON": -5.691050, "COORD__LAT": 40.632200, "CODIGO_COL": 37005277 }, "geometry": { "type": "Point", "coordinates": [ -5.69105, 40.6322 ] } },
{ "type": "Feature", "properties": { "DENOMINA_2": "JUAN LUIS VIVES", "PROVINCIA": "AVILA", "MUNICIPIO": "SOTILLO DE LA ADRADA", "COORD__LON": -4.590870, "COORD__LAT": 40.290850, "CODIGO_COL": 5004780 }, "geometry": { "type": "Point", "coordinates": [ -4.59087, 40.29085 ] } },
{ "type": "Feature", "properties": { "DENOMINA_2": "JUAN MENA DE LA CRUZ", "PROVINCIA": "PALENCIA", "MUNICIPIO": "PALENCIA", "COORD__LON": -4.534560, "COORD__LAT": 42.024370, "CODIGO_COL": 34001418 }, "geometry": { "type": "Point", "coordinates": [ -4.53456, 42.02437 ] } },
{ "type": "Feature", "properties": { "DENOMINA_2": "JUAN XXIII", "PROVINCIA": "AVILA", "MUNICIPIO": "FONTIVEROS", "COORD__LON": -4.964040, "COORD__LAT": 40.932710, "CODIGO_COL": 5001791 }, "geometry": { "type": "Point", "coordinates": [ -4.96404, 40.93271 ] } },
{ "type": "Feature", "properties": { "DENOMINA_2": "JUAN XXIII", "PROVINCIA": "ZAMORA", "MUNICIPIO": "ZAMORA", "COORD__LON": -5.750570, "COORD__LAT": 41.510780, "CODIGO_COL": 49005431 }, "geometry": { "type": "Point", "coordinates": [ -5.75057, 41.51078 ] } },
{ "type": "Feature", "properties": { "DENOMINA_2": "JUECES DE CASTILLA", "PROVINCIA": "BURGOS", "MUNICIPIO": "BURGOS", "COORD__LON": -3.685760, "COORD__LAT": 42.351210, "CODIGO_COL": 9007945 }, "geometry": { "type": "Point", "coordinates": [ -3.68576, 42.35121 ] } },
{ "type": "Feature", "properties": { "DENOMINA_2": "KANTIC@ARROYO", "PROVINCIA": "VALLADOLID", "MUNICIPIO": "ARROYO DE LA ENCOMIENDA", "COORD__LON": -4.798610, "COORD__LAT": 41.622050, "CODIGO_COL": 47011267 }, "geometry": { "type": "Point", "coordinates": [ -4.79861, 41.62205 ] } },
{ "type": "Feature", "properties": { "DENOMINA_2": "LA ANTIGUA", "PROVINCIA": "SALAMANCA", "MUNICIPIO": "BEJAR", "COORD__LON": -5.777410, "COORD__LAT": 40.388640, "CODIGO_COL": 37000929 }, "geometry": { "type": "Point", "coordinates": [ -5.77741, 40.38864 ] } },